[{"name": "Thalhof", "lat": 47.70466, "lng": 15.84704, "count": 752}, {"name": "Ischl", "lat": 47.71109, "lng": 13.61893, "count": 387}, {"name": "Grillparzerstraße", "lat": 48.212643768549, "lng": 16.357353835756, "count": 380}, {"name": "Berlin", "lat": 52.52437, "lng": 13.41053, "count": 289}, {"name": "Semmering", "lat": 47.63333, "lng": 15.81667, "count": 237}, {"name": "Salzburg", "lat": 47.79941, "lng": 13.04399, "count": 232}, {"name": "München", "lat": 48.13743, "lng": 11.57549, "count": 165}, {"name": "Reichenau", "lat": 47.7, "lng": 15.83333, "count": 153}, {"name": "Hotel und Pension Rudolfshöhe (Leopold Petter)", "lat": 47.706537, "lng": 13.609575, "count": 95}, {"name": "Altaussee", "lat": 47.63844, "lng": 13.76278, "count": 92}, {"name": "Edlach", "lat": 47.69255, "lng": 15.80915, "count": 89}, {"name": "Villa Annerl", "lat": 47.6416, "lng": 13.77095, "count": 88}, {"name": "London", "lat": 51.50853, "lng": -0.12574, "count": 79}, {"name": "Hotel Edlacherhof", "lat": 47.605239, "lng": 15.707639, "count": 79}, {"name": "Welsberg", "lat": 46.75774, "lng": 12.10556, "count": 79}, {"name": "Südbahnhotel", "lat": 47.647222, "lng": 15.83, "count": 79}, {"name": "Aussee", "lat": 47.60998, "lng": 13.78243, "count": 78}, {"name": "Venedig", "lat": 45.43713, "lng": 12.33265, "count": 73}, {"name": "Baden", "lat": 48.00543, "lng": 16.23264, "count": 72}, {"name": "Seis", "lat": 46.54133, "lng": 11.55868, "count": 72}, {"name": "Innsbruck", "lat": 47.26266, "lng": 11.39454, "count": 70}, {"name": "Wildbad Waldbrunn", "lat": 46.751211, "lng": 12.101269, "count": 70}, {"name": "Villa Heufler", "lat": 46.54555, "lng": 11.560026, "count": 70}, {"name": "Brioni", "lat": 44.91417, "lng": 13.76222, "count": 69}, {"name": "Kurhaus Rudolfsbad", "lat": 47.69852, "lng": 15.84453, "count": 68}, {"name": "Brijuni", "lat": 44.91417, "lng": 13.76222, "count": 68}, {"name": "Bozen", "lat": 46.49067, "lng": 11.33982, "count": 65}, {"name": "Hinterbrühl", "lat": 48.08611, "lng": 16.24809, "count": 59}, {"name": "Tuchlauben", "lat": 48.210369328822, "lng": 16.370282346864, "count": 58}, {"name": "Celerina", "lat": 46.5146, "lng": 9.8622, "count": 57}, {"name": "Berchtesgaden", "lat": 47.63236, "lng": 13.00187, "count": 48}, {"name": "Payerbach", "lat": 47.69209, "lng": 15.8634, "count": 47}, {"name": "Paris", "lat": 48.85341, "lng": 2.3488, "count": 46}, {"name": "St. Moritz", "lat": 46.49937, "lng": 9.84327, "count": 44}, {"name": "Marienlyst", "lat": 55.00186, "lng": 11.92716, "count": 43}, {"name": "rue de Maubeuge", "lat": 48.876305, "lng": 2.340682, "count": 42}, {"name": "Garmisch-Partenkirchen", "lat": 47.49209, "lng": 11.09576, "count": 41}, {"name": "Zürich", "lat": 47.37174, "lng": 8.54226, "count": 39}, {"name": "Baden-Baden", "lat": 48.7606, "lng": 8.23975, "count": 35}, {"name": "Prag", "lat": 50.08804, "lng": 14.42076, "count": 34}, {"name": "Meran", "lat": 46.66817, "lng": 11.15953, "count": 33}, {"name": "Vahrn", "lat": 46.73901, "lng": 11.63749, "count": 32}, {"name": "Hôtel du Parc & Bristol", "lat": 50.08161, "lng": 8.24473, "count": 28}, {"name": "Frankfurt am Main", "lat": 50.11552, "lng": 8.68417, "count": 27}, {"name": "Rax", "lat": 47.7, "lng": 15.71667, "count": 27}, {"name": "Luzern", "lat": 47.05048, "lng": 8.30635, "count": 25}, {"name": "Villa Dr. Wassing", "lat": 47.119503, "lng": 13.140375, "count": 25}, {"name": "Dresden", "lat": 51.05089, "lng": 13.73832, "count": 23}, {"name": "Mödling", "lat": 48.08605, "lng": 16.28921, "count": 23}, {"name": "Toblach", "lat": 46.72878, "lng": 12.22225, "count": 22}, {"name": "Kopenhagen", "lat": 55.67594, "lng": 12.56553, "count": 22}, {"name": "Genua", "lat": 44.40478, "lng": 8.94439, "count": 22}, {"name": "Hotel und Pension Lueg", "lat": 47.753992, "lng": 13.372111, "count": 22}, {"name": "Ostende", "lat": 51.21551, "lng": 2.927, "count": 21}, {"name": "Hamburg", "lat": 53.57532, "lng": 10.01534, "count": 21}, {"name": "Skodsborg", "lat": 55.8225, "lng": 12.57324, "count": 21}, {"name": "Badehotel", "lat": 55.826747, "lng": 12.574733, "count": 21}, {"name": "Florenz", "lat": 43.77925, "lng": 11.24626, "count": 21}, {"name": "Adelboden", "lat": 46.49142, "lng": 7.56031, "count": 21}, {"name": "Villach", "lat": 46.61028, "lng": 13.85583, "count": 20}, {"name": "Rom", "lat": 41.89193, "lng": 12.51133, "count": 20}, {"name": "Karersee", "lat": 46.41147, "lng": 11.58817, "count": 20}, {"name": "Amsterdam", "lat": 52.37403, "lng": 4.88969, "count": 19}, {"name": "Mailand", "lat": 45.46427, "lng": 9.18951, "count": 19}, {"name": "Wiesbaden", "lat": 50.08258, "lng": 8.24932, "count": 19}, {"name": "Bad Gastein", "lat": 47.11547, "lng": 13.13467, "count": 19}, {"name": "Pontresina", "lat": 46.4955, "lng": 9.90126, "count": 18}, {"name": "Reichenau an der Rax", "lat": 47.7, "lng": 15.83333, "count": 18}, {"name": "Neapel", "lat": 40.83333, "lng": 14.25, "count": 18}, {"name": "Tutzing", "lat": 47.90938, "lng": 11.2803, "count": 18}, {"name": "Lugano", "lat": 46.01008, "lng": 8.96004, "count": 17}, {"name": "Berlin", "lat": 52.52437, "lng": 13.41053, "count": 17}, {"name": "Lueg", "lat": 47.56667, "lng": 13.2, "count": 17}, {"name": "Hotel Radetzky", "lat": 48.090788, "lng": 16.241739, "count": 17}, {"name": "Schweiz", "lat": 47.00016, "lng": 8.01427, "count": 17}, {"name": "Ragaz", "lat": 47.00601, "lng": 9.50266, "count": 16}, {"name": "Riva", "lat": 45.88577, "lng": 10.84117, "count": 16}, {"name": "Graz", "lat": 47.06667, "lng": 15.45, "count": 16}, {"name": "Nürnberg", "lat": 49.45421, "lng": 11.07752, "count": 16}, {"name": "Palasthotel Berlin", "lat": 52.509241, "lng": 13.376984, "count": 16}, {"name": "Cresta Palace", "lat": 46.512179, "lng": 9.85759, "count": 16}, {"name": "Fiume", "lat": 45.32673, "lng": 14.44241, "count": 15}, {"name": "Abbazia", "lat": 45.33771, "lng": 14.30515, "count": 15}, {"name": "Budapest", "lat": 47.49835, "lng": 19.04045, "count": 15}, {"name": "Grand Hotel Stockholm", "lat": 59.329722, "lng": 18.075556, "count": 15}, {"name": "Breslau", "lat": 51.1, "lng": 17.03333, "count": 15}, {"name": "Hotel Kaiserkrone", "lat": 47.71356, "lng": 13.61926, "count": 15}, {"name": "St. Gilgen", "lat": 47.76667, "lng": 13.36667, "count": 14}, {"name": "Gmunden", "lat": 47.91839, "lng": 13.79933, "count": 13}, {"name": "München", "lat": 48.13743, "lng": 11.57549, "count": 13}, {"name": "Triest", "lat": 45.64953, "lng": 13.77678, "count": 13}, {"name": "Chur", "lat": 46.8578, "lng": 9.5215, "count": 13}, {"name": "St. Anton", "lat": 47.1275, "lng": 10.26372, "count": 13}, {"name": "Österreichischer Hof", "lat": 47.802045, "lng": 13.043401, "count": 13}, {"name": "Feldafing", "lat": 47.94602, "lng": 11.29326, "count": 13}, {"name": "Klagenfurt", "lat": 46.62472, "lng": 14.30528, "count": 12}, {"name": "Linz", "lat": 48.30639, "lng": 14.28611, "count": 12}, {"name": "Hotel Westminster", "lat": 52.516823, "lng": 13.389865, "count": 12}, {"name": "Territet", "lat": 46.42863, "lng": 6.92122, "count": 12}, {"name": "Hotel Bristol", "lat": 52.516152, "lng": 13.383456, "count": 12}, {"name": "Davos", "lat": 46.80429, "lng": 9.83723, "count": 11}, {"name": "Pension Quisisana", "lat": 45.333852, "lng": 14.301821, "count": 11}, {"name": "Hotel Continental", "lat": 48.143395, "lng": 11.569993, "count": 11}, {"name": "Interlaken", "lat": 46.68387, "lng": 7.86638, "count": 11}, {"name": "Pension Pundschu", "lat": 46.610344, "lng": 14.057955, "count": 11}, {"name": "Trient", "lat": 46.06787, "lng": 11.12108, "count": 11}, {"name": "Spalato", "lat": 43.50891, "lng": 16.43915, "count": 11}, {"name": "Hotel Simson", "lat": 47.90798, "lng": 11.27453, "count": 11}, {"name": "Cortina", "lat": 46.5369, "lng": 12.13903, "count": 10}, {"name": "Königssee", "lat": 47.55567, "lng": 12.97802, "count": 10}, {"name": "Verona", "lat": 45.4299, "lng": 10.98444, "count": 10}, {"name": "Martino", "lat": 46.26667, "lng": 11.8, "count": 10}, {"name": "Dalmatien", "lat": 43.812761, "lng": 16.218756, "count": 10}, {"name": "Thusis", "lat": 46.69724, "lng": 9.43938, "count": 10}, {"name": "Ottakringer Bräu", "lat": 48.18636, "lng": 16.30202, "count": 10}, {"name": "Venedig", "lat": 45.43713, "lng": 12.33265, "count": 10}, {"name": "Gardone", "lat": 45.62396, "lng": 10.56682, "count": 10}, {"name": "Grand Hotel Gardone", "lat": 45.618146, "lng": 10.560226, "count": 10}, {"name": "Pörtschach", "lat": 47.02251, "lng": 14.47783, "count": 9}, {"name": "Würnitz", "lat": 48.41667, "lng": 16.41667, "count": 9}, {"name": "Neuhaus", "lat": 47.99521, "lng": 16.04588, "count": 9}, {"name": "Feldkirch", "lat": 47.23306, "lng": 9.6, "count": 9}, {"name": "Hotel Post", "lat": 47.70896, "lng": 11.75367, "count": 9}, {"name": "Hotel Savoy", "lat": 52.521572, "lng": 13.388194, "count": 9}, {"name": "Mendel", "lat": 46.41667, "lng": 11.2, "count": 9}, {"name": "Brünn", "lat": 49.19522, "lng": 16.60796, "count": 9}, {"name": "Parkhotel München", "lat": 48.141240506268204, "lng": 11.570521871552252, "count": 9}, {"name": "Herchenbachstraße", "lat": 48.74979, "lng": 8.23933, "count": 9}, {"name": "Hotel Esplanade", "lat": 52.51, "lng": 13.374444, "count": 9}, {"name": "Zermatt", "lat": 46.01998, "lng": 7.74863, "count": 9}, {"name": "Velden", "lat": 46.61301, "lng": 14.0413, "count": 8}, {"name": "Zell am See", "lat": 47.32556, "lng": 12.79444, "count": 8}, {"name": "Gastein", "lat": 47.11547, "lng": 13.13467, "count": 8}, {"name": "Lienz", "lat": 46.8289, "lng": 12.76903, "count": 8}, {"name": "Spital", "lat": 47.66487, "lng": 14.34014, "count": 8}, {"name": "Halle", "lat": 51.48158, "lng": 11.97947, "count": 8}, {"name": "Melk", "lat": 48.22737, "lng": 15.33186, "count": 8}, {"name": "Wachau", "lat": 48.33333, "lng": 15.41667, "count": 8}, {"name": "Krems", "lat": 48.40921, "lng": 15.61415, "count": 8}, {"name": "Genf", "lat": 46.20222, "lng": 6.14569, "count": 8}, {"name": "Pola", "lat": 44.86833, "lng": 13.84806, "count": 8}, {"name": "Ragusa", "lat": 42.64807, "lng": 18.09216, "count": 8}, {"name": "Mentone", "lat": 43.77649, "lng": 7.50435, "count": 8}, {"name": "Gossensass", "lat": 46.93857, "lng": 11.44245, "count": 8}, {"name": "Hotel Adlon", "lat": 52.515833, "lng": 13.380556, "count": 8}, {"name": "Bad Ragaz", "lat": 47.00601, "lng": 9.50266, "count": 8}, {"name": "Köln", "lat": 50.93333, "lng": 6.95, "count": 7}, {"name": "Lend", "lat": 47.28075, "lng": 13.02265, "count": 7}, {"name": "Preßburg", "lat": 48.14816, "lng": 17.10674, "count": 7}, {"name": "Bad Vöslau", "lat": 47.96533, "lng": 16.21359, "count": 7}, {"name": "Schluderbach", "lat": 46.62111, "lng": 12.21722, "count": 7}, {"name": "Karlsbad", "lat": 50.23271, "lng": 12.87117, "count": 7}, {"name": "Marienbad", "lat": 49.96459, "lng": 12.70118, "count": 7}, {"name": "Stockholm", "lat": 59.325, "lng": 18.05, "count": 7}, {"name": "Basel", "lat": 47.55839, "lng": 7.57327, "count": 7}, {"name": "Padua", "lat": 45.40797, "lng": 11.88586, "count": 7}, {"name": "Niederdorf", "lat": 46.73781, "lng": 12.17266, "count": 7}, {"name": "Hotel Stiegl", "lat": 46.50083719693118, "lng": 11.36266523227271, "count": 7}, {"name": "Waidbruck", "lat": 46.59712, "lng": 11.53088, "count": 7}, {"name": "Schneeberg", "lat": 47.78333, "lng": 15.78333, "count": 7}, {"name": "Campiglio", "lat": 46.22671, "lng": 10.82582, "count": 7}, {"name": "Palermo", "lat": 38.13205, "lng": 13.33561, "count": 7}, {"name": "Hotel de l’Europe", "lat": 45.432304, "lng": 12.336899, "count": 7}, {"name": "Kreuzberg", "lat": 47.66667, "lng": 15.81667, "count": 7}, {"name": "Hotel Phönix", "lat": 55.68301054011226, "lng": 12.588912857735648, "count": 7}, {"name": "Stuttgart", "lat": 48.78232, "lng": 9.17702, "count": 7}, {"name": "Tarasp", "lat": 46.77696, "lng": 10.25848, "count": 7}, {"name": "Forte dei Marmi", "lat": 43.96388, "lng": 10.17478, "count": 7}, {"name": "Haag", "lat": 52.07667, "lng": 4.29861, "count": 6}, {"name": "Brunnen", "lat": 46.9936, "lng": 8.60538, "count": 6}, {"name": "Mariazell", "lat": 47.77306, "lng": 15.31639, "count": 6}, {"name": "Kirchau", "lat": 47.65, "lng": 16.1, "count": 6}, {"name": "Gloggnitz", "lat": 47.67487, "lng": 15.93893, "count": 6}, {"name": "Rekawinkel", "lat": 48.17936, "lng": 16.02433, "count": 6}, {"name": "St. Pölten", "lat": 48.2, "lng": 15.63333, "count": 6}, {"name": "Wr. Neustadt", "lat": 47.80485, "lng": 16.23196, "count": 6}, {"name": "Singerin", "lat": 47.77325, "lng": 15.73019, "count": 6}, {"name": "Gutenstein", "lat": 47.875833333333, "lng": 15.889166666667, "count": 6}, {"name": "Reichenhall", "lat": 47.730685, "lng": 12.882423, "count": 6}, {"name": "St. Johann", "lat": 47.35, "lng": 13.2, "count": 6}, {"name": "Tölz", "lat": 47.76111, "lng": 11.5589, "count": 6}, {"name": "Bologna", "lat": 44.49381, "lng": 11.33875, "count": 6}, {"name": "Toblach", "lat": 46.72493, "lng": 12.22109, "count": 6}, {"name": "Gstatterboden", "lat": 47.6, "lng": 14.63333, "count": 6}, {"name": "Admont", "lat": 47.57537, "lng": 14.46075, "count": 6}, {"name": "Nizza", "lat": 43.70313, "lng": 7.26608, "count": 6}, {"name": "Monte Carlo", "lat": 43.73976, "lng": 7.42732, "count": 6}, {"name": "Pompei", "lat": 40.750556, "lng": 14.489722, "count": 6}, {"name": "Taormina", "lat": 37.85358, "lng": 15.28851, "count": 6}, {"name": "Teplitz", "lat": 50.6404, "lng": 13.82451, "count": 6}, {"name": "Bern", "lat": 46.9489, "lng": 7.4638, "count": 6}, {"name": "Hotel Atlantic", "lat": 53.557222, "lng": 10.004722, "count": 6}, {"name": "Lissabon", "lat": 38.71667, "lng": -9.13333, "count": 6}, {"name": "Gösing", "lat": 47.88677, "lng": 15.29108, "count": 6}, {"name": "Lochau", "lat": 47.53333, "lng": 9.75, "count": 6}, {"name": "Las Palmas", "lat": 28.09973, "lng": -15.41343, "count": 6}, {"name": "Scheveningen", "lat": 52.10461, "lng": 4.27557, "count": 5}, {"name": "Mainz", "lat": 49.98419, "lng": 8.2791, "count": 5}, {"name": "Le Prese", "lat": 46.29313, "lng": 10.07889, "count": 5}, {"name": "Bormio", "lat": 46.46717, "lng": 10.37008, "count": 5}, {"name": "Locarno", "lat": 46.17086, "lng": 8.79953, "count": 5}, {"name": "Krieglach", "lat": 47.54728, "lng": 15.56248, "count": 5}, {"name": "Tegernsee", "lat": 47.7123, "lng": 11.7582, "count": 5}, {"name": "Mürren", "lat": 46.5588, "lng": 7.8929, "count": 5}, {"name": "Brenner", "lat": 47.00528, "lng": 11.50836, "count": 5}, {"name": "Sterzing", "lat": 46.89313, "lng": 11.42961, "count": 5}, {"name": "Ancona", "lat": 43.5942, "lng": 13.50337, "count": 5}, {"name": "Semmering", "lat": 47.64224, "lng": 15.8241, "count": 5}, {"name": "Weimar", "lat": 50.9803, "lng": 11.32903, "count": 5}, {"name": "Hotel du Lac", "lat": 45.883097, "lng": 10.852736, "count": 5}, {"name": "Loretto", "lat": 46.61667, "lng": 14.25, "count": 4}, {"name": "Golling", "lat": 47.6, "lng": 13.16667, "count": 4}, {"name": "Millstatt", "lat": 46.82295, "lng": 13.60447, "count": 4}, {"name": "Morteratsch", "lat": 46.45112, "lng": 9.94077, "count": 4}, {"name": "Bernina", "lat": 46.30994, "lng": 10.08814, "count": 4}, {"name": "Bolladore", "lat": 46.32652, "lng": 10.31856, "count": 4}, {"name": "Stilfserjoch", "lat": 46.53333, "lng": 10.45, "count": 4}, {"name": "Weissenbach", "lat": 47.8004, "lng": 13.5358, "count": 4}, {"name": "Vitznau", "lat": 47.01014, "lng": 8.4842, "count": 4}, {"name": "Flüelen", "lat": 46.9028, "lng": 8.6249, "count": 4}, {"name": "Axenstein", "lat": 46.98613, "lng": 8.61619, "count": 4}, {"name": "Cadenabbia", "lat": 45.98861, "lng": 9.23615, "count": 4}, {"name": "Brighton", "lat": 50.82838, "lng": -0.13947, "count": 4}, {"name": "Dover", "lat": 51.12598, "lng": 1.31257, "count": 4}, {"name": "Brüssel", "lat": 50.85045, "lng": 4.34878, "count": 4}, {"name": "Grundlsee", "lat": 47.63333, "lng": 13.86667, "count": 4}, {"name": "Eisenerz", "lat": 47.53333, "lng": 14.88333, "count": 4}, {"name": "Wildalpen", "lat": 47.65, "lng": 14.98333, "count": 4}, {"name": "Weichselboden", "lat": 47.66667, "lng": 15.16667, "count": 4}, {"name": "Salzburg", "lat": 47.80067, "lng": 13.04532, "count": 4}, {"name": "Seebenstein", "lat": 47.69936, "lng": 16.14484, "count": 4}, {"name": "Kirchberg am W.", "lat": 47.60738, "lng": 15.99103, "count": 4}, {"name": "Tulln", "lat": 48.32829, "lng": 16.05858, "count": 4}, {"name": "Hainfeld", "lat": 48.0339, "lng": 15.77414, "count": 4}, {"name": "Lilienfeld", "lat": 48.01312, "lng": 15.59664, "count": 4}, {"name": "Lofer", "lat": 47.58475, "lng": 12.69333, "count": 4}, {"name": "Achensee", "lat": 47.46556, "lng": 11.70924, "count": 4}, {"name": "Starnberger See", "lat": 47.90348, "lng": 11.31187, "count": 4}, {"name": "Heiligenkreuz", "lat": 48.05559, "lng": 16.12493, "count": 4}, {"name": "Lübeck", "lat": 53.86893, "lng": 10.68729, "count": 4}, {"name": "Trondhjem", "lat": 63.43049, "lng": 10.39506, "count": 4}, {"name": "Bodensee", "lat": 49.06694, "lng": 8.35278, "count": 4}, {"name": "Mürzzuschlag", "lat": 47.6066, "lng": 15.67226, "count": 4}, {"name": "Bruck an der Mur", "lat": 47.41667, "lng": 15.28333, "count": 4}, {"name": "Steindorf am Ossiacher See", "lat": 46.6992, "lng": 13.98892, "count": 4}, {"name": "Fusch", "lat": 47.22729, "lng": 12.82727, "count": 4}, {"name": "Kreuth", "lat": 47.64085, "lng": 11.74485, "count": 4}, {"name": "Lausanne", "lat": 46.516, "lng": 6.63282, "count": 4}, {"name": "Grindelwald", "lat": 46.62396, "lng": 8.03601, "count": 4}, {"name": "Brienz", "lat": 46.7545, "lng": 8.03847, "count": 4}, {"name": "Krumpendorf", "lat": 46.62526, "lng": 14.21664, "count": 4}, {"name": "Prags", "lat": 46.72023, "lng": 12.13339, "count": 4}, {"name": "Plätzwiesen", "lat": 46.64949, "lng": 12.18531, "count": 4}, {"name": "Misurina", "lat": 46.58108, "lng": 12.25275, "count": 4}, {"name": "Tre Croci", "lat": 46.55672, "lng": 12.20259, "count": 4}, {"name": "Biebrich", "lat": 50.0415, "lng": 8.24878, "count": 4}, {"name": "Rüdesheim", "lat": 49.9789, "lng": 7.92442, "count": 4}, {"name": "Zara", "lat": 44.11578, "lng": 15.22514, "count": 4}, {"name": "Cattaro", "lat": 42.42067, "lng": 18.76825, "count": 4}, {"name": "Puchberg a/Sch.", "lat": 47.78709, "lng": 15.91352, "count": 4}, {"name": "Baumgartnerhaus", "lat": 47.75, "lng": 15.83333, "count": 4}, {"name": "Waidhofen", "lat": 47.96004, "lng": 14.77361, "count": 4}, {"name": "Gasthaus Brunnthaler", "lat": 47.6417738, "lng": 13.7682587, "count": 4}, {"name": "Selzthal", "lat": 47.54988, "lng": 14.31201, "count": 4}, {"name": "Bad Aussee", "lat": 47.60998, "lng": 13.78243, "count": 4}, {"name": "Gasthaus Post", "lat": 47.61105, "lng": 13.78655, "count": 4}, {"name": "Bischofshofen", "lat": 47.41667, "lng": 13.21667, "count": 4}, {"name": "Pisa", "lat": 43.70853, "lng": 10.4036, "count": 4}, {"name": "Landeck", "lat": 47.12575, "lng": 10.56679, "count": 4}, {"name": "Weißlahnbad", "lat": 46.47655, "lng": 11.55704, "count": 4}, {"name": "Hieflau", "lat": 47.60639, "lng": 14.74503, "count": 4}, {"name": "Windischgarsten", "lat": 47.72223, "lng": 14.32755, "count": 4}, {"name": "Malè", "lat": 46.35356, "lng": 10.91246, "count": 4}, {"name": "Sorrent", "lat": 40.62678, "lng": 14.37771, "count": 4}, {"name": "Messina", "lat": 38.19394, "lng": 15.55256, "count": 4}, {"name": "Hotel und Pension Nelböck", "lat": 47.808997, "lng": 13.045141, "count": 4}, {"name": "Cap Martino", "lat": 43.76408, "lng": 7.48207, "count": 4}, {"name": "Sonnwendstein", "lat": 47.61667, "lng": 15.85, "count": 4}, {"name": "Gilleleje", "lat": 56.12196, "lng": 12.31056, "count": 4}, {"name": "Eisenach", "lat": 50.9807, "lng": 10.31522, "count": 4}, {"name": "Wocheiner See", "lat": 46.28556, "lng": 13.86194, "count": 4}, {"name": "Wolkenstein", "lat": 46.55472, "lng": 11.76038, "count": 4}, {"name": "Eibsee", "lat": 47.45601, "lng": 10.97311, "count": 4}, {"name": "Mönichkirchen", "lat": 47.51062, "lng": 16.03425, "count": 4}, {"name": "Oberau", "lat": 47.55979, "lng": 11.13919, "count": 4}, {"name": "Aussig", "lat": 51.40574, "lng": 13.19159, "count": 4}, {"name": "Östermalmsgatan", "lat": 59.34477008871903, "lng": 18.06772970041719, "count": 4}, {"name": "Bergün", "lat": 46.62934, "lng": 9.74762, "count": 4}, {"name": "Bregenz", "lat": 47.50311, "lng": 9.7471, "count": 4}, {"name": "Ems", "lat": 50.33544, "lng": 7.71369, "count": 3}, {"name": "Böckstein", "lat": 47.08333, "lng": 13.11667, "count": 3}, {"name": "Obervellach", "lat": 46.93667, "lng": 13.20417, "count": 3}, {"name": "Heiligenblut", "lat": 47.03979, "lng": 12.84345, "count": 3}, {"name": "Kals", "lat": 47.01702, "lng": 12.6583, "count": 3}, {"name": "Millstättersee", "lat": 46.79222, "lng": 13.59194, "count": 3}, {"name": "Spondinig", "lat": 46.63368, "lng": 10.6134, "count": 3}, {"name": "Rigi Kulm", "lat": 47.0555, "lng": 8.48447, "count": 3}, {"name": "Menaggio", "lat": 46.02075, "lng": 9.23907, "count": 3}, {"name": "Bellagio", "lat": 45.98772, "lng": 9.26182, "count": 3}, {"name": "Como", "lat": 45.80819, "lng": 9.0832, "count": 3}, {"name": "Ventnor", "lat": 50.59449, "lng": -1.20672, "count": 3}, {"name": "Newport", "lat": 50.70146, "lng": -1.29124, "count": 3}, {"name": "Pieve di Cadore", "lat": 46.42466, "lng": 12.36416, "count": 3}, {"name": "Wels", "lat": 48.16667, "lng": 14.03333, "count": 3}, {"name": "Hall", "lat": 48.03832, "lng": 14.20773, "count": 3}, {"name": "Jenbach", "lat": 47.39173, "lng": 11.77245, "count": 3}, {"name": "Hotel zum Kronprinzen", "lat": 53.553694, "lng": 10.008484, "count": 3}, {"name": "Christiania", "lat": 55.67346, "lng": 12.59765, "count": 3}, {"name": "Delémont", "lat": 47.36493, "lng": 7.34453, "count": 3}, {"name": "Neuchâtel", "lat": 46.99179, "lng": 6.931, "count": 3}, {"name": "Chillon", "lat": 46.41417, "lng": 6.92872, "count": 3}, {"name": "Meiringen", "lat": 46.72709, "lng": 8.1872, "count": 3}, {"name": "Gletsch", "lat": 46.56226, "lng": 8.36196, "count": 3}, {"name": "Belisce", "lat": 45.6799, "lng": 18.40073, "count": 3}, {"name": "Orahovica", "lat": 45.54, "lng": 17.88472, "count": 3}, {"name": "Caprile", "lat": 46.43783, "lng": 11.99438, "count": 3}, {"name": "Vigo", "lat": 46.41898, "lng": 11.67418, "count": 3}, {"name": "Paneveggio", "lat": 46.3, "lng": 11.73333, "count": 3}, {"name": "Hotel Deutscher Kaiser", "lat": 49.44914, "lng": 11.079535, "count": 3}, {"name": "Krimml", "lat": 47.21799, "lng": 12.17487, "count": 3}, {"name": "Schruns", "lat": 47.07092, "lng": 9.94746, "count": 3}, {"name": "Gargellen", "lat": 46.96743, "lng": 9.91825, "count": 3}, {"name": "Trafoi", "lat": 46.5517, "lng": 10.50988, "count": 3}, {"name": "Julienhof", "lat": 48.010324, "lng": 16.238308, "count": 3}, {"name": "Vicenza", "lat": 45.54672, "lng": 11.5475, "count": 3}, {"name": "Caldonazzo", "lat": 45.99367, "lng": 11.26426, "count": 3}, {"name": "Syrakus", "lat": 37.07542, "lng": 15.28664, "count": 3}, {"name": "Villafranca", "lat": 44.29844, "lng": 9.95347, "count": 3}, {"name": "Korfu", "lat": 39.598055, "lng": 19.852222, "count": 3}, {"name": "Pordoi", "lat": 46.48772, "lng": 11.81358, "count": 3}, {"name": "Aspang", "lat": 47.55, "lng": 16.08333, "count": 3}, {"name": "Grüner Baum", "lat": 48.00909, "lng": 16.23376, "count": 3}, {"name": "Almissa", "lat": 43.44472, "lng": 16.68861, "count": 3}, {"name": "Trau", "lat": 43.5125, "lng": 16.25167, "count": 3}, {"name": "Grand Hotel Venezia", "lat": 45.431739, "lng": 12.333875, "count": 3}, {"name": "Regensburg", "lat": 49.01513, "lng": 12.10161, "count": 3}, {"name": "Zuidersee", "lat": 52.82762, "lng": 5.24814, "count": 3}, {"name": "Oosterbeek", "lat": 51.98583, "lng": 5.84583, "count": 3}, {"name": "Friedrichshafen", "lat": 47.65689, "lng": 9.47554, "count": 3}, {"name": "Istanbul", "lat": 41.01384, "lng": 28.94966, "count": 3}, {"name": "Coblenz", "lat": 50.35357, "lng": 7.57883, "count": 2}, {"name": "Bonn", "lat": 50.73438, "lng": 7.09549, "count": 2}, {"name": "Sankt Bartholomä", "lat": 47.51667, "lng": 12.95, "count": 2}, {"name": "Nassfeld", "lat": 47.05, "lng": 13.05, "count": 2}, {"name": "Malnitzer Tauern", "lat": 47.05, "lng": 13.1, "count": 2}, {"name": "Winklern", "lat": 46.87361, "lng": 12.87472, "count": 2}, {"name": "Pasterze", "lat": 47.1, "lng": 12.7, "count": 2}, {"name": "Huben", "lat": 46.93333, "lng": 12.57306, "count": 2}, {"name": "Albulapass", "lat": 46.58235, "lng": 9.83771, "count": 2}, {"name": "Poschiavo", "lat": 46.32441, "lng": 10.05823, "count": 2}, {"name": "Altmünster", "lat": 47.90219, "lng": 13.76415, "count": 2}, {"name": "Kammer", "lat": 47.36667, "lng": 12.81667, "count": 2}, {"name": "Kammer", "lat": 47.94711, "lng": 13.59541, "count": 2}, {"name": "Unterach", "lat": 47.80522, "lng": 13.48939, "count": 2}, {"name": "Arth", "lat": 47.06337, "lng": 8.52349, "count": 2}, {"name": "Isola Bella", "lat": 45.89538, "lng": 8.52708, "count": 2}, {"name": "Luino", "lat": 46.00185, "lng": 8.74512, "count": 2}, {"name": "Porlezza", "lat": 46.03714, "lng": 9.12921, "count": 2}, {"name": "Tremezzo", "lat": 45.98423, "lng": 9.21613, "count": 2}, {"name": "Portsmouth", "lat": 50.79899, "lng": -1.09125, "count": 2}, {"name": "Ryde", "lat": 50.72999, "lng": -1.1621, "count": 2}, {"name": "Cowes", "lat": 50.76306, "lng": -1.29772, "count": 2}, {"name": "Isle of Wight", "lat": 50.66667, "lng": -1.33333, "count": 2}, {"name": "Traunkirchen", "lat": 47.84462, "lng": 13.78939, "count": 2}, {"name": "Traunsee", "lat": 47.85, "lng": 13.8, "count": 2}, {"name": "Grünau", "lat": 47.85493, "lng": 13.95573, "count": 2}, {"name": "Almsee", "lat": 47.7526, "lng": 13.95658, "count": 2}, {"name": "Almsee", "lat": 47.7526, "lng": 13.95658, "count": 2}, {"name": "Offensee", "lat": 47.75, "lng": 13.83333, "count": 2}, {"name": "Ebensee", "lat": 47.80716, "lng": 13.779, "count": 2}, {"name": "Gössl", "lat": 47.63399, "lng": 13.90264, "count": 2}, {"name": "Kammersee", "lat": 47.64972, "lng": 13.94306, "count": 2}, {"name": "Eisenerzerhöhe", "lat": 47.6, "lng": 14.91667, "count": 2}, {"name": "Neuberg", "lat": 47.66423, "lng": 15.57226, "count": 2}, {"name": "Kleinrötz", "lat": 48.4, "lng": 16.41667, "count": 2}, {"name": "Groß-Kanizsa", "lat": 46.45347, "lng": 16.99104, "count": 2}, {"name": "Pottenstein", "lat": 47.9582, "lng": 16.0948, "count": 2}, {"name": "Pressbaum", "lat": 48.18333, "lng": 16.08333, "count": 2}, {"name": "Dölsach", "lat": 46.82833, "lng": 12.84528, "count": 2}, {"name": "Dellach", "lat": 46.7375, "lng": 13.07833, "count": 2}, {"name": "Sollenau", "lat": 47.89834, "lng": 16.24833, "count": 2}, {"name": "Lambach", "lat": 48.09276, "lng": 13.87453, "count": 2}, {"name": "Bad Aussee", "lat": 47.60998, "lng": 13.78243, "count": 2}, {"name": "Mistelbach", "lat": 48.57795, "lng": 16.57791, "count": 2}, {"name": "Altenmarkt", "lat": 48.01553, "lng": 15.99661, "count": 2}, {"name": "Klosterneuburg", "lat": 48.30521, "lng": 16.32522, "count": 2}, {"name": "Franzensbad", "lat": 50.12033, "lng": 12.35174, "count": 2}, {"name": "Holzkirchen", "lat": 47.87663, "lng": 11.70181, "count": 2}, {"name": "Harlaching", "lat": 48.08978, "lng": 11.56345, "count": 2}, {"name": "Salvatorgasse", "lat": 48.84835, "lng": 10.48853, "count": 2}, {"name": "Alland", "lat": 48.03953, "lng": 16.08085, "count": 2}, {"name": "Günselsdorf", "lat": 47.94395, "lng": 16.26062, "count": 2}, {"name": "Mayerling", "lat": 48.04469, "lng": 16.09694, "count": 2}, {"name": "Stavanger", "lat": 58.97005, "lng": 5.73332, "count": 2}, {"name": "Odde", "lat": 60.06697, "lng": 6.54541, "count": 2}, {"name": "Odda", "lat": 60.06697, "lng": 6.54541, "count": 2}, {"name": "Bergen", "lat": 60.39299, "lng": 5.32415, "count": 2}, {"name": "Vossevangen", "lat": 60.62869, "lng": 6.41474, "count": 2}, {"name": "Stalheim", "lat": 60.83626, "lng": 6.6799, "count": 2}, {"name": "Gudvangen", "lat": 60.87773, "lng": 6.83795, "count": 2}, {"name": "Oie", "lat": 54.24364, "lng": 13.91097, "count": 2}, {"name": "Norangthal", "lat": 62.18333, "lng": 6.73333, "count": 2}, {"name": "Hellesylt", "lat": 62.08549, "lng": 6.86769, "count": 2}, {"name": "Naes", "lat": 62.89496, "lng": 8.42908, "count": 2}, {"name": "Torghatten", "lat": 63.94082, "lng": 10.0275, "count": 2}, {"name": "Svartisengletscher", "lat": 66.65895, "lng": 13.93925, "count": 2}, {"name": "Harstad", "lat": 68.79833, "lng": 16.54165, "count": 2}, {"name": "Tromsö", "lat": 69.6489, "lng": 18.95508, "count": 2}, {"name": "Hammerfest", "lat": 70.66313, "lng": 23.68092, "count": 2}, {"name": "Nordkap", "lat": 71.1725, "lng": 25.784444, "count": 2}, {"name": "Lyngenfjord", "lat": 64.36957, "lng": 11.28901, "count": 2}, {"name": "Namsos", "lat": 64.46624, "lng": 11.49572, "count": 2}, {"name": "Upsala", "lat": 59.85882, "lng": 17.63889, "count": 2}, {"name": "Goeteborg", "lat": 57.70716, "lng": 11.96679, "count": 2}, {"name": "Trollhättan-Fälle", "lat": 58.2799, "lng": 12.2771, "count": 2}, {"name": "Hven", "lat": 55.91004, "lng": 12.69878, "count": 2}, {"name": "Fontainebleau", "lat": 48.40908, "lng": 2.70177, "count": 2}, {"name": "Meudon", "lat": 48.81381, "lng": 2.235, "count": 2}, {"name": "Villennes-sur-Seine", "lat": 48.94137, "lng": 1.99137, "count": 2}, {"name": "Joinville-le-Pont", "lat": 48.82538, "lng": 2.47458, "count": 2}, {"name": "Ville d'Avray", "lat": 48.82358, "lng": 2.19311, "count": 2}, {"name": "Vlissingen", "lat": 51.4425, "lng": 3.57361, "count": 2}, {"name": "Hannover", "lat": 52.37052, "lng": 9.73322, "count": 2}, {"name": "Pöchlarn", "lat": 48.2, "lng": 15.2, "count": 2}, {"name": "Gaming", "lat": 47.929, "lng": 15.08818, "count": 2}, {"name": "Scheibmühl", "lat": 48.052635, "lng": 15.611744, "count": 2}, {"name": "Pamsenhof", "lat": 47.9044, "lng": 15.49918, "count": 2}, {"name": "Friesach", "lat": 46.95528, "lng": 14.40583, "count": 2}, {"name": "St. Veit", "lat": 46.76806, "lng": 14.36028, "count": 2}, {"name": "Steindorf", "lat": 46.69833, "lng": 14.00917, "count": 2}, {"name": "Annenheim", "lat": 46.65909, "lng": 13.90036, "count": 2}, {"name": "Ossiach", "lat": 46.67435, "lng": 13.98358, "count": 2}, {"name": "Kindberg", "lat": 47.5, "lng": 15.45, "count": 2}, {"name": "Frohnleiten", "lat": 47.26667, "lng": 15.31667, "count": 2}, {"name": "Schladming", "lat": 47.39289, "lng": 13.68699, "count": 2}, {"name": "Werfen", "lat": 47.47585, "lng": 13.1902, "count": 2}, {"name": "Egern", "lat": 47.69376, "lng": 11.75091, "count": 2}, {"name": "Schliersee", "lat": 47.73621, "lng": 11.85936, "count": 2}, {"name": "Biel", "lat": 47.13713, "lng": 7.24608, "count": 2}, {"name": "Yverdon", "lat": 46.77852, "lng": 6.64115, "count": 2}, {"name": "Rochers de Naye", "lat": 46.4318, "lng": 6.97602, "count": 2}, {"name": "Vevey", "lat": 46.46299, "lng": 6.84345, "count": 2}, {"name": "Genfer See", "lat": 46.43774, "lng": 6.46906, "count": 2}, {"name": "Montreux", "lat": 46.43301, "lng": 6.91143, "count": 2}, {"name": "Wengen", "lat": 46.60599, "lng": 7.92013, "count": 2}, {"name": "Scheidegg", "lat": 46.58609, "lng": 7.96126, "count": 2}, {"name": "Grimsel", "lat": 46.56102, "lng": 8.33695, "count": 2}, {"name": "Furka", "lat": 46.57191, "lng": 8.41642, "count": 2}, {"name": "Göschenen", "lat": 46.66816, "lng": 8.58709, "count": 2}, {"name": "Weggis", "lat": 47.03208, "lng": 8.43219, "count": 2}, {"name": "Küssnacht", "lat": 47.08557, "lng": 8.44206, "count": 2}, {"name": "Pilatus", "lat": 46.9804, "lng": 8.2572, "count": 2}, {"name": "Parma", "lat": 44.79935, "lng": 10.32618, "count": 2}, {"name": "Ferrara", "lat": 44.83804, "lng": 11.62057, "count": 2}, {"name": "Sigmundsherberg", "lat": 48.68333, "lng": 15.75, "count": 2}, {"name": "Rosenburg", "lat": 48.62809, "lng": 15.64058, "count": 2}, {"name": "Faaker See", "lat": 46.5775, "lng": 13.92556, "count": 2}, {"name": "Tarvis", "lat": 46.50567, "lng": 13.58689, "count": 2}, {"name": "Raiblsee", "lat": 46.42028, "lng": 13.565, "count": 2}, {"name": "Hotel Mosser", "lat": 46.616526, "lng": 13.849003, "count": 2}, {"name": "Giau", "lat": 46.48306, "lng": 12.05417, "count": 2}, {"name": "Fedaja", "lat": 46.45971, "lng": 11.86983, "count": 2}, {"name": "Campitello", "lat": 46.47632, "lng": 11.74199, "count": 2}, {"name": "Predazzo", "lat": 46.3114, "lng": 11.5996, "count": 2}, {"name": "Rollepass", "lat": 46.29636, "lng": 11.78852, "count": 2}, {"name": "Fonzaso", "lat": 46.0164, "lng": 11.79897, "count": 2}, {"name": "Tezze", "lat": 45.69011, "lng": 11.70672, "count": 2}, {"name": "Igls", "lat": 47.23333, "lng": 11.41667, "count": 2}, {"name": "Triest", "lat": 45.66667, "lng": 13.76667, "count": 2}, {"name": "Ombla", "lat": 42.66778, "lng": 18.07833, "count": 2}, {"name": "Johnsbach", "lat": 47.53333, "lng": 14.58333, "count": 2}, {"name": "St. Michael", "lat": 47.33839, "lng": 15.01784, "count": 2}, {"name": "Sankt Martin am Grimming", "lat": 47.48873, "lng": 13.98105, "count": 2}, {"name": "Kainisch", "lat": 47.5561, "lng": 13.8405, "count": 2}, {"name": "Obertraun", "lat": 47.55782, "lng": 13.68553, "count": 2}, {"name": "Kesselfall", "lat": 47.216326, "lng": 12.726278, "count": 2}, {"name": "Moserboden", "lat": 47.16667, "lng": 12.71667, "count": 2}, {"name": "Berghaus Moserboden", "lat": 47.16667, "lng": 12.71667, "count": 2}, {"name": "Bludenz", "lat": 47.15476, "lng": 9.82255, "count": 2}, {"name": "Schlappiner Joch", "lat": 46.92495, "lng": 9.9079, "count": 2}, {"name": "Klosters", "lat": 46.88269, "lng": 9.87609, "count": 2}, {"name": "Runkelstein", "lat": 46.51754, "lng": 11.35888, "count": 2}, {"name": "Cannes", "lat": 43.55135, "lng": 7.01275, "count": 2}, {"name": "Langen am Arlberg", "lat": 47.13333, "lng": 10.11667, "count": 2}, {"name": "Brixen", "lat": 46.71503, "lng": 11.65598, "count": 2}, {"name": "Dreikirchen", "lat": 46.62279, "lng": 11.51292, "count": 2}, {"name": "Franzensfeste", "lat": 46.78333, "lng": 11.6, "count": 2}, {"name": "Schönberg", "lat": 47.18333, "lng": 11.41667, "count": 2}, {"name": "Waldrast", "lat": 47.13333, "lng": 11.4, "count": 2}, {"name": "Matrei am Brenner", "lat": 47.12852, "lng": 11.45222, "count": 2}, {"name": "Mühlbach", "lat": 46.79658, "lng": 11.66754, "count": 2}, {"name": "Leoben", "lat": 47.3765, "lng": 15.09144, "count": 2}, {"name": "Prebichl", "lat": 47.53333, "lng": 14.93333, "count": 2}, {"name": "Liezen", "lat": 47.56667, "lng": 14.23333, "count": 2}, {"name": "Pyhrnpass", "lat": 47.62381, "lng": 14.30639, "count": 2}, {"name": "Kleinreifling", "lat": 47.81667, "lng": 14.63333, "count": 2}, {"name": "Amstetten", "lat": 48.1229, "lng": 14.87206, "count": 2}, {"name": "Agnetendorf", "lat": 50.816944, "lng": 15.609444, "count": 2}, {"name": "Hallein", "lat": 47.68333, "lng": 13.1, "count": 2}, {"name": "Murano", "lat": 45.45857, "lng": 12.35683, "count": 2}, {"name": "Torcello", "lat": 45.49648, "lng": 12.41747, "count": 2}, {"name": "Varese", "lat": 45.82058, "lng": 8.82511, "count": 2}, {"name": "Fischerhütte", "lat": 47.772499956947584, "lng": 15.809797301585972, "count": 2}, {"name": "Kaltern", "lat": 46.41326, "lng": 11.24616, "count": 2}, {"name": "Tione", "lat": 46.0355, "lng": 10.72679, "count": 2}, {"name": "Val Ampola", "lat": 45.86753, "lng": 10.64887, "count": 2}, {"name": "Pieve di Ledro", "lat": 45.88848, "lng": 10.73124, "count": 2}, {"name": "Palast Hotel Lido", "lat": 45.883272, "lng": 10.846236, "count": 2}, {"name": "Lavarone", "lat": 45.93632, "lng": 11.27206, "count": 2}, {"name": "Capri", "lat": 40.54997, "lng": 14.22652, "count": 2}, {"name": "Anacapri", "lat": 40.5517, "lng": 14.21225, "count": 2}, {"name": "Adelsberg", "lat": 45.77435, "lng": 14.21528, "count": 2}, {"name": "Nasswald", "lat": 47.73333, "lng": 15.66667, "count": 2}, {"name": "Pegli", "lat": 44.42445, "lng": 8.81213, "count": 2}, {"name": "Monaco", "lat": 43.73333, "lng": 7.41667, "count": 2}, {"name": "Ajaccio", "lat": 41.91886, "lng": 8.73812, "count": 2}, {"name": "Hotel Imperial", "lat": 42.64262, "lng": 18.10491, "count": 2}, {"name": "Curpark", "lat": 48.012864, "lng": 16.23114, "count": 2}, {"name": "Raach", "lat": 47.63333, "lng": 15.93333, "count": 2}, {"name": "Hochschwab", "lat": 47.61973, "lng": 15.14557, "count": 2}, {"name": "Schreckenstein", "lat": 50.63916, "lng": 14.05081, "count": 2}, {"name": "Hilleröd", "lat": 55.92791, "lng": 12.30081, "count": 2}, {"name": "Hornbaek", "lat": 56.09027, "lng": 12.45693, "count": 2}, {"name": "Moelle", "lat": 56.28333, "lng": 12.5, "count": 2}, {"name": "Frederiksborg", "lat": 55.93451, "lng": 12.30041, "count": 2}, {"name": "Ny Carlsberg Glyptohek", "lat": 55.672222, "lng": 12.571667, "count": 2}, {"name": "Ilmenau", "lat": 50.6912, "lng": 10.9199, "count": 2}, {"name": "Oberhof", "lat": 50.705556, "lng": 10.725, "count": 2}, {"name": "Wörthersee", "lat": 46.62917, "lng": 14.12306, "count": 2}, {"name": "Veldes", "lat": 46.36825, "lng": 14.11005, "count": 2}, {"name": "Pressegger See", "lat": 46.62694, "lng": 13.44333, "count": 2}, {"name": "Spittal an der Drau", "lat": 46.8, "lng": 13.5, "count": 2}, {"name": "Seeboden", "lat": 46.81909, "lng": 13.5143, "count": 2}, {"name": "Innichen", "lat": 46.7324, "lng": 12.27855, "count": 2}, {"name": "Fischleinboden", "lat": 46.666799, "lng": 12.353684, "count": 2}, {"name": "Taisten", "lat": 46.76891, "lng": 12.11397, "count": 2}, {"name": "Olang", "lat": 46.76027, "lng": 12.02951, "count": 2}, {"name": "Bruneck", "lat": 46.7963, "lng": 11.9449, "count": 2}, {"name": "Grieser Thal", "lat": 46.51667, "lng": 11.33333, "count": 2}, {"name": "Ulrich", "lat": 46.57603, "lng": 11.67176, "count": 2}, {"name": "Sellajoch", "lat": 46.50894, "lng": 11.76241, "count": 2}, {"name": "Canazei", "lat": 46.47627, "lng": 11.76929, "count": 2}, {"name": "Naifthal", "lat": 42.83333, "lng": 12.83333, "count": 2}, {"name": "St. Valentin", "lat": 46.664699, "lng": 11.187927, "count": 2}, {"name": "Puchberg", "lat": 47.78709, "lng": 15.91352, "count": 2}, {"name": "Rodaun", "lat": 48.13307, "lng": 16.25839, "count": 2}, {"name": "Dachau", "lat": 48.26, "lng": 11.43402, "count": 2}, {"name": "Badersee", "lat": 47.47399, "lng": 11.01481, "count": 2}, {"name": "Mittenwald", "lat": 47.4422, "lng": 11.26187, "count": 2}, {"name": "Walchensee", "lat": 47.59225, "lng": 11.34685, "count": 2}, {"name": "Kochelsee", "lat": 47.64448, "lng": 11.34071, "count": 2}, {"name": "Isarthal", "lat": 48.0563, "lng": 11.5144, "count": 2}, {"name": "Salegg", "lat": 46.53456, "lng": 11.56208, "count": 2}, {"name": "Hotel Salegg", "lat": 46.537267233027, "lng": 11.555829781650656, "count": 2}, {"name": "Schlern", "lat": 46.5072, "lng": 11.57487, "count": 2}, {"name": "Berndorf", "lat": 48.43333, "lng": 14.21667, "count": 2}, {"name": "Veitsau", "lat": 47.93333, "lng": 16.1, "count": 2}, {"name": "Grünbach", "lat": 47.79747, "lng": 15.98785, "count": 2}, {"name": "Hohe Wand", "lat": 47.81564, "lng": 16.03276, "count": 2}, {"name": "Hohenschwangau", "lat": 47.55631, "lng": 10.74085, "count": 2}, {"name": "Neuschwanstein", "lat": 47.55718, "lng": 10.74935, "count": 2}, {"name": "Trattenbach", "lat": 47.6, "lng": 15.86667, "count": 2}, {"name": "Heidelberg", "lat": 49.40768, "lng": 8.69079, "count": 2}, {"name": "Darmstadt", "lat": 49.87167, "lng": 8.65027, "count": 2}, {"name": "Nervi", "lat": 44.38333, "lng": 9.03333, "count": 2}, {"name": "Rapallo", "lat": 44.3496, "lng": 9.22796, "count": 2}, {"name": "Portofino", "lat": 44.30349, "lng": 9.20942, "count": 2}, {"name": "Antibes", "lat": 43.58579, "lng": 7.10831, "count": 2}, {"name": "Ala", "lat": 45.76072, "lng": 11.00458, "count": 2}, {"name": "Ochnerhöhe", "lat": 47.65, "lng": 15.78333, "count": 2}, {"name": "Travemünde", "lat": 53.96304, "lng": 10.8709, "count": 2}, {"name": "Blankenese", "lat": 53.55698, "lng": 9.8059, "count": 2}, {"name": "Prag", "lat": 50.08333, "lng": 14.46667, "count": 2}, {"name": "Palasthotel Prag", "lat": 50.0839, "lng": 14.42777, "count": 2}, {"name": "Ritz-Carlton Budapest", "lat": 47.497444816, "lng": 19.053534, "count": 2}, {"name": "Engadin", "lat": 46.601337, "lng": 9.965973, "count": 2}, {"name": "Maloja", "lat": 46.401497, "lng": 9.695937, "count": 2}, {"name": "Algier", "lat": 36.73225, "lng": 3.08746, "count": 2}, {"name": "Southampton", "lat": 50.90395, "lng": -1.40428, "count": 2}, {"name": "Antwerpen", "lat": 51.22047, "lng": 4.40026, "count": 2}, {"name": "Antwerpen", "lat": 51.2663, "lng": 4.37077, "count": 2}, {"name": "Haarlem", "lat": 52.38084, "lng": 4.63683, "count": 2}, {"name": "Zandvoort", "lat": 52.37125, "lng": 4.53306, "count": 2}, {"name": "Utrecht", "lat": 52.09083, "lng": 5.12222, "count": 2}, {"name": "Lunz", "lat": 47.8612, "lng": 15.02998, "count": 2}, {"name": "Flims", "lat": 46.83705, "lng": 9.28458, "count": 2}, {"name": "Wörgl", "lat": 47.48906, "lng": 12.06174, "count": 2}, {"name": "Küb", "lat": 47.68076, "lng": 15.88039, "count": 2}, {"name": "Elmau", "lat": 47.45998, "lng": 11.17985, "count": 2}, {"name": "Hasental", "lat": 48.55, "lng": 9.6, "count": 2}, {"name": "Kurpark", "lat": 47.696629, "lng": 15.843363, "count": 2}, {"name": "Gosau", "lat": 47.58417, "lng": 13.53447, "count": 2}, {"name": "Abtenau", "lat": 47.56373, "lng": 13.34599, "count": 2}, {"name": "Ettal", "lat": 47.56667, "lng": 11.1, "count": 2}, {"name": "Oberammergau", "lat": 47.59812, "lng": 11.06692, "count": 2}, {"name": "Zögersdorf", "lat": 48.36667, "lng": 16.16667, "count": 2}, {"name": "Rotterdam", "lat": 51.9225, "lng": 4.47917, "count": 2}, {"name": "Leiden", "lat": 52.15833, "lng": 4.49306, "count": 2}, {"name": "Nordwyk", "lat": 52.26953, "lng": 4.46354, "count": 2}, {"name": "Delft", "lat": 52.00667, "lng": 4.35556, "count": 2}, {"name": "Nymwegen", "lat": 51.8425, "lng": 5.85278, "count": 2}, {"name": "Possenhofen", "lat": 47.95947, "lng": 11.31038, "count": 2}, {"name": "St. Peter", "lat": 47.55, "lng": 16.01667, "count": 2}, {"name": "Sankt Peter am Wechsel", "lat": 47.55, "lng": 16.01667, "count": 2}, {"name": "Hotel Kaiserin Elisabeth", "lat": 47.94933649585533, "lng": 11.298363683529006, "count": 2}, {"name": "Hintersee", "lat": 47.60661, "lng": 12.85313, "count": 2}, {"name": "Reichenberg", "lat": 50.76711, "lng": 15.05619, "count": 2}, {"name": "Erlaufboden", "lat": 47.88333, "lng": 15.26667, "count": 2}, {"name": "Roskilde", "lat": 55.64152, "lng": 12.08035, "count": 2}, {"name": "Saltsjöbaden", "lat": 59.28333, "lng": 18.3, "count": 2}, {"name": "Drottningholm", "lat": 59.32513, "lng": 17.8878, "count": 2}, {"name": "Drottningholms Slottsteater", "lat": 59.321667, "lng": 17.886944, "count": 2}, {"name": "Ulm", "lat": 48.39841, "lng": 9.99155, "count": 2}, {"name": "Romanshorn", "lat": 47.56354, "lng": 9.35639, "count": 2}, {"name": "Arosa", "lat": 46.77793, "lng": 9.67621, "count": 2}, {"name": "Konstanz", "lat": 47.66033, "lng": 9.17582, "count": 2}, {"name": "Arlberg", "lat": 47.13462, "lng": 10.20544, "count": 2}, {"name": "Richterhöhe", "lat": 47.793525, "lng": 13.040353, "count": 2}, {"name": "Zuoz", "lat": 46.60206, "lng": 9.95965, "count": 2}, {"name": "Stresa", "lat": 45.88158, "lng": 8.53834, "count": 2}, {"name": "Freiburg", "lat": 47.9959, "lng": 7.85222, "count": 2}, {"name": "St. Gallen", "lat": 47.42391, "lng": 9.37477, "count": 2}, {"name": "Passo di Falzarego", "lat": 46.51889, "lng": 12.00876, "count": 2}, {"name": "Ritten", "lat": 46.54152, "lng": 11.45728, "count": 2}, {"name": "Molveno", "lat": 46.14238, "lng": 10.963, "count": 2}, {"name": "Grödner Thal", "lat": 46.56667, "lng": 11.66667, "count": 2}, {"name": "Fondo", "lat": 46.4388, "lng": 11.13723, "count": 2}, {"name": "Tirano", "lat": 46.21482, "lng": 10.16335, "count": 2}, {"name": "Fondo", "lat": 46.4388, "lng": 11.13723, "count": 2}, {"name": "Chiavenna", "lat": 46.32063, "lng": 9.39816, "count": 2}, {"name": "Patras", "lat": 38.24444, "lng": 21.73444, "count": 2}, {"name": "Cintra", "lat": 38.80097, "lng": -9.37826, "count": 2}, {"name": "Montana Vermala", "lat": 46.33548, "lng": 7.51818, "count": 2}, {"name": "Brig", "lat": 46.31667, "lng": 7.98333, "count": 2}, {"name": "Gornergrat", "lat": 45.98322, "lng": 7.78484, "count": 2}, {"name": "Beatenberg", "lat": 46.69896, "lng": 7.79428, "count": 2}, {"name": "Kaltbad", "lat": 47.04415, "lng": 8.46523, "count": 2}, {"name": "Bürgenstock", "lat": 47.00032, "lng": 8.3983, "count": 2}, {"name": "Klobenstein", "lat": 46.53861, "lng": 11.46552, "count": 2}, {"name": "Sulden", "lat": 46.52715, "lng": 10.58905, "count": 2}]