[{"name": "Bad Ischl", "lat": 47.71109, "lng": 13.61893, "count": 407}, {"name": "Grillparzerstraße", "lat": 48.212643768549, "lng": 16.357353835756, "count": 339}, {"name": "Berlin", "lat": 52.52437, "lng": 13.41053, "count": 298}, {"name": "Semmering", "lat": 47.64224, "lng": 15.8241, "count": 234}, {"name": "Salzburg", "lat": 47.80067, "lng": 13.04532, "count": 159}, {"name": "München", "lat": 48.13743, "lng": 11.57549, "count": 157}, {"name": "Reichenau an der Rax", "lat": 47.7, "lng": 15.83333, "count": 143}, {"name": "Altaussee", "lat": 47.6698, "lng": 13.78453, "count": 97}, {"name": "Hotel und Pension Rudolfshöhe (Leopold Petter)", "lat": 47.706537, "lng": 13.609575, "count": 95}, {"name": "Villa Annerl", "lat": 47.6416, "lng": 13.77095, "count": 87}, {"name": "London", "lat": 51.50853, "lng": -0.12574, "count": 77}, {"name": "Hotel Edlacherhof", "lat": 47.605239, "lng": 15.707639, "count": 77}, {"name": "Südbahnhotel", "lat": 47.647222, "lng": 15.83, "count": 76}, {"name": "Edlach", "lat": 47.69255, "lng": 15.80915, "count": 75}, {"name": "Bad Aussee", "lat": 47.60998, "lng": 13.78243, "count": 72}, {"name": "Seis am Schlern", "lat": 46.54133, "lng": 11.55868, "count": 71}, {"name": "Venedig", "lat": 45.43713, "lng": 12.33265, "count": 70}, {"name": "Welsberg-Taisten", "lat": 46.75774, "lng": 12.10556, "count": 70}, {"name": "Celerina", "lat": 46.5146, "lng": 9.8622, "count": 70}, {"name": "Berlin", "lat": 52.52437, "lng": 13.41053, "count": 70}, {"name": "Villa Heufler", "lat": 46.54555, "lng": 11.560026, "count": 69}, {"name": "Wildbad Waldbrunn", "lat": 46.751211, "lng": 12.101269, "count": 68}, {"name": "Brijuni", "lat": 44.91417, "lng": 13.76222, "count": 68}, {"name": "Kurhaus Rudolfsbad", "lat": 47.69852, "lng": 15.84453, "count": 67}, {"name": "Thalhof", "lat": 47.70466, "lng": 15.84704, "count": 61}, {"name": "Tuchlauben", "lat": 48.210369328822, "lng": 16.370282346864, "count": 58}, {"name": "Hinterbrühl", "lat": 48.08611, "lng": 16.24809, "count": 55}, {"name": "Bozen", "lat": 46.49067, "lng": 11.33982, "count": 51}, {"name": "Berchtesgaden", "lat": 47.63236, "lng": 13.00187, "count": 45}, {"name": "Paris", "lat": 48.85341, "lng": 2.3488, "count": 45}, {"name": "Marienlyst", "lat": 56.042028, "lng": 12.601917, "count": 43}, {"name": "rue de Maubeuge", "lat": 48.876305, "lng": 2.340682, "count": 42}, {"name": "Meissl & Schadn", "lat": 48.202204, "lng": 16.374869, "count": 40}, {"name": "Garmisch-Partenkirchen", "lat": 47.49209, "lng": 11.09576, "count": 39}, {"name": "Payerbach", "lat": 47.69209, "lng": 15.8634, "count": 38}, {"name": "Innsbruck", "lat": 47.28433, "lng": 11.37706, "count": 35}, {"name": "Marienbad", "lat": 49.96115, "lng": 12.72872, "count": 33}, {"name": "Luzern", "lat": 47.05048, "lng": 8.30635, "count": 32}, {"name": "Baden-Baden", "lat": 48.7606, "lng": 8.23975, "count": 32}, {"name": "Prater", "lat": 48.20609, "lng": 16.41169, "count": 32}, {"name": "Mödling", "lat": 48.08605, "lng": 16.28921, "count": 31}, {"name": "Vahrn", "lat": 46.73901, "lng": 11.63749, "count": 31}, {"name": "Türkenschanzpark", "lat": 48.235119783861, "lng": 16.333568462613, "count": 31}, {"name": "Meran", "lat": 46.66817, "lng": 11.15953, "count": 30}, {"name": "Deutsches Volkstheater", "lat": 48.205142, "lng": 16.3566, "count": 30}, {"name": "Prag", "lat": 50.08333, "lng": 14.46667, "count": 29}, {"name": "VIII., Josefstadt", "lat": 48.21126, "lng": 16.34706, "count": 29}, {"name": "Bad Gastein", "lat": 47.11547, "lng": 13.13467, "count": 26}, {"name": "Burgtheater", "lat": 48.210333, "lng": 16.361139, "count": 26}, {"name": "Villa Dr. Wassing", "lat": 47.119503, "lng": 13.140375, "count": 25}, {"name": "Sankt Moritz", "lat": 46.49937, "lng": 9.84327, "count": 25}, {"name": "Sankt Moritz", "lat": 46.49937, "lng": 9.84327, "count": 24}, {"name": "Opatija", "lat": 45.33771, "lng": 14.30515, "count": 24}, {"name": "Baden bei Wien", "lat": 48.00543, "lng": 16.23264, "count": 24}, {"name": "Hotel und Pension Lueg", "lat": 47.753992, "lng": 13.372111, "count": 22}, {"name": "Frankfurt am Main", "lat": 50.11552, "lng": 8.68417, "count": 21}, {"name": "Ostend", "lat": 51.21551, "lng": 2.927, "count": 21}, {"name": "Skodsborg", "lat": 55.8225, "lng": 12.57324, "count": 21}, {"name": "Badehotel", "lat": 55.826747, "lng": 12.574733, "count": 21}, {"name": "Florenz", "lat": 43.77925, "lng": 11.24626, "count": 21}, {"name": "Amsterdam", "lat": 52.37403, "lng": 4.88969, "count": 20}, {"name": "Carezza", "lat": 46.41147, "lng": 11.58817, "count": 20}, {"name": "Gmunden", "lat": 47.91839, "lng": 13.79933, "count": 20}, {"name": "Zürich", "lat": 47.37174, "lng": 8.54226, "count": 19}, {"name": "Toblach", "lat": 46.72493, "lng": 12.22109, "count": 18}, {"name": "Rom", "lat": 41.89193, "lng": 12.51133, "count": 18}, {"name": "Pass Lueg", "lat": 47.56667, "lng": 13.2, "count": 17}, {"name": "Hotel Radetzky", "lat": 48.090788, "lng": 16.241739, "count": 17}, {"name": "Tutzing", "lat": 47.90938, "lng": 11.2803, "count": 17}, {"name": "Cresta Palace", "lat": 46.512179, "lng": 9.85759, "count": 17}, {"name": "Villach", "lat": 46.61028, "lng": 13.85583, "count": 16}, {"name": "Lugano", "lat": 46.01008, "lng": 8.96004, "count": 16}, {"name": "Graz", "lat": 47.06667, "lng": 15.43333, "count": 16}, {"name": "Kopenhagen", "lat": 55.67594, "lng": 12.56553, "count": 16}, {"name": "Palasthotel Berlin", "lat": 52.509241, "lng": 13.376984, "count": 16}, {"name": "Reichenau an der Rax", "lat": 47.7, "lng": 15.83333, "count": 16}, {"name": "Hohenschwangau", "lat": 47.55631, "lng": 10.74085, "count": 16}, {"name": "Dresden", "lat": 51.05089, "lng": 13.73832, "count": 15}, {"name": "Hotel Kaiserkrone", "lat": 47.71356, "lng": 13.61926, "count": 15}, {"name": "Adelboden", "lat": 46.49142, "lng": 7.56031, "count": 15}, {"name": "Pötzleinsdorf", "lat": 48.246838181084, "lng": 16.300034240016, "count": 15}, {"name": "Bad Ragaz", "lat": 47.00601, "lng": 9.50266, "count": 14}, {"name": "Mailand", "lat": 45.46427, "lng": 9.18951, "count": 14}, {"name": "Neapel", "lat": 40.85216, "lng": 14.26811, "count": 14}, {"name": "St. Gilgen", "lat": 47.76667, "lng": 13.36667, "count": 14}, {"name": "Neuwaldegg", "lat": 48.233119188484, "lng": 16.28610371233, "count": 14}, {"name": "Velden am Wörthersee", "lat": 46.61901, "lng": 14.03129, "count": 13}, {"name": "Pontresina", "lat": 46.4955, "lng": 9.90126, "count": 13}, {"name": "Wiesbaden", "lat": 50.08258, "lng": 8.24932, "count": 13}, {"name": "Nürnberg", "lat": 49.45421, "lng": 11.07752, "count": 13}, {"name": "Breslau", "lat": 51.10773, "lng": 17.03533, "count": 13}, {"name": "St. Anton am Arlberg", "lat": 47.1275, "lng": 10.26372, "count": 13}, {"name": "Österreichischer Hof", "lat": 47.802045, "lng": 13.043401, "count": 13}, {"name": "Feldafing", "lat": 47.94602, "lng": 11.29326, "count": 13}, {"name": "Den Haag", "lat": 52.07667, "lng": 4.29861, "count": 12}, {"name": "Budapest", "lat": 47.49835, "lng": 19.04045, "count": 12}, {"name": "Riva del Garda", "lat": 45.88576, "lng": 10.84118, "count": 12}, {"name": "Hotel Westminster", "lat": 52.516823, "lng": 13.389865, "count": 12}, {"name": "Hamburg", "lat": 53.57532, "lng": 10.01534, "count": 12}, {"name": "Stockholm", "lat": 59.325, "lng": 18.05, "count": 12}, {"name": "Döbling", "lat": 48.25, "lng": 16.33333, "count": 12}, {"name": "Caux", "lat": 46.43241, "lng": 6.93855, "count": 12}, {"name": "Klagenfurt", "lat": 46.62472, "lng": 14.30528, "count": 11}, {"name": "Rijeka", "lat": 45.32673, "lng": 14.44241, "count": 11}, {"name": "Würnitz", "lat": 48.41667, "lng": 16.41667, "count": 11}, {"name": "Pension Quisisana", "lat": 45.333852, "lng": 14.301821, "count": 11}, {"name": "Hotel Continental", "lat": 48.143395, "lng": 11.569993, "count": 11}, {"name": "Interlaken", "lat": 46.68387, "lng": 7.86638, "count": 11}, {"name": "Pension Pundschu", "lat": 46.610344, "lng": 14.057955, "count": 11}, {"name": "Genua", "lat": 44.40478, "lng": 8.94439, "count": 11}, {"name": "Hotel Bristol", "lat": 52.516152, "lng": 13.383456, "count": 11}, {"name": "Grinzing", "lat": 48.25, "lng": 16.33333, "count": 11}, {"name": "Bad Ischl", "lat": 47.71109, "lng": 13.61893, "count": 11}, {"name": "Steinriegl", "lat": 48.26667, "lng": 16.23333, "count": 11}, {"name": "Territet", "lat": 46.42863, "lng": 6.92122, "count": 11}, {"name": "Schönbrunn", "lat": 48.181749, "lng": 16.310494, "count": 11}, {"name": "Gmunden", "lat": 47.91839, "lng": 13.79933, "count": 10}, {"name": "Linz", "lat": 48.30639, "lng": 14.28611, "count": 10}, {"name": "Hôtel du Parc & Bristol", "lat": 50.08161, "lng": 8.24473, "count": 10}, {"name": "Triest", "lat": 45.66667, "lng": 13.76667, "count": 10}, {"name": "Menton", "lat": 43.77649, "lng": 7.50435, "count": 10}, {"name": "Hotel Simson", "lat": 47.90798, "lng": 11.27453, "count": 10}, {"name": "Gardone Riviera", "lat": 45.62499, "lng": 10.56527, "count": 10}, {"name": "Grand Hotel Gardone", "lat": 45.618146, "lng": 10.560226, "count": 10}, {"name": "Hohe Warte", "lat": 48.248422, "lng": 16.355191, "count": 10}, {"name": "Tegernsee", "lat": 47.7123, "lng": 11.7582, "count": 9}, {"name": "Hotel Post", "lat": 47.70896, "lng": 11.75367, "count": 9}, {"name": "Chur", "lat": 46.8578, "lng": 9.5215, "count": 9}, {"name": "Bern", "lat": 46.9489, "lng": 7.4638, "count": 9}, {"name": "Parkhotel München", "lat": 48.141240506268204, "lng": 11.570521871552252, "count": 9}, {"name": "Herchenbachstraße", "lat": 48.74979, "lng": 8.23933, "count": 9}, {"name": "Hotel Esplanade", "lat": 52.51, "lng": 13.374444, "count": 9}, {"name": "Zermatt", "lat": 45.98974, "lng": 7.75264, "count": 9}, {"name": "Venedig", "lat": 45.43713, "lng": 12.33265, "count": 9}, {"name": "XIII., Hietzing", "lat": 48.17547, "lng": 16.29101, "count": 9}, {"name": "Halle an der Saale", "lat": 51.48158, "lng": 11.97947, "count": 8}, {"name": "Verona", "lat": 45.4299, "lng": 10.98444, "count": 8}, {"name": "Hotel Savoy", "lat": 52.521572, "lng": 13.388194, "count": 8}, {"name": "Gossensass", "lat": 46.93857, "lng": 11.44245, "count": 8}, {"name": "Hotel Adlon", "lat": 52.515833, "lng": 13.380556, "count": 8}, {"name": "Cortina d'Ampezzo", "lat": 46.5369, "lng": 12.13903, "count": 7}, {"name": "Bratislava", "lat": 48.14816, "lng": 17.10674, "count": 7}, {"name": "Brunn am Gebirge", "lat": 48.10917, "lng": 16.29204, "count": 7}, {"name": "Karlsbad", "lat": 50.23271, "lng": 12.87117, "count": 7}, {"name": "Neuhaus", "lat": 47.99521, "lng": 16.04588, "count": 7}, {"name": "Territet", "lat": 46.42863, "lng": 6.92122, "count": 7}, {"name": "San Martino di Castrozza", "lat": 46.26667, "lng": 11.8, "count": 7}, {"name": "Trient", "lat": 46.06787, "lng": 11.12108, "count": 7}, {"name": "Hotel Stiegl", "lat": 46.50083719693118, "lng": 11.36266523227271, "count": 7}, {"name": "Thusis", "lat": 46.69724, "lng": 9.43938, "count": 7}, {"name": "Taormina", "lat": 37.85358, "lng": 15.28851, "count": 7}, {"name": "Hotel Atlantic", "lat": 53.557222, "lng": 10.004722, "count": 7}, {"name": "Hotel de l’Europe", "lat": 45.432304, "lng": 12.336899, "count": 7}, {"name": "Kreuzberg", "lat": 47.66667, "lng": 15.81667, "count": 7}, {"name": "Hotel Phönix", "lat": 55.68301054011226, "lng": 12.588912857735648, "count": 7}, {"name": "Tarasp", "lat": 46.77696, "lng": 10.25848, "count": 7}, {"name": "Forte dei Marmi", "lat": 43.96388, "lng": 10.17478, "count": 7}, {"name": "Purkersdorf", "lat": 48.20769, "lng": 16.17539, "count": 7}, {"name": "Klosterneuburg", "lat": 48.30521, "lng": 16.32522, "count": 7}, {"name": "München", "lat": 48.13743, "lng": 11.57549, "count": 7}, {"name": "Köln", "lat": 50.93835, "lng": 6.95427, "count": 6}, {"name": "Zell am See", "lat": 47.32556, "lng": 12.79444, "count": 6}, {"name": "Pörtschach", "lat": 47.02251, "lng": 14.47783, "count": 6}, {"name": "Bad Vöslau", "lat": 47.96533, "lng": 16.21359, "count": 6}, {"name": "Melk", "lat": 48.22737, "lng": 15.33186, "count": 6}, {"name": "Wachau", "lat": 48.33333, "lng": 15.41667, "count": 6}, {"name": "Dubrovnik", "lat": 42.64807, "lng": 18.09216, "count": 6}, {"name": "Monte Carlo", "lat": 43.73976, "lng": 7.42732, "count": 6}, {"name": "Hotel Centrale Vapore", "lat": 45.436169051051536, "lng": 12.337638888716349, "count": 6}, {"name": "Ottakringer Bräu", "lat": 48.18636, "lng": 16.30202, "count": 6}, {"name": "Passo della Mendola", "lat": 46.41667, "lng": 11.2, "count": 6}, {"name": "Madonna di Campiglio", "lat": 46.22671, "lng": 10.82582, "count": 6}, {"name": "Brünn", "lat": 49.19522, "lng": 16.60796, "count": 6}, {"name": "Raxalpe", "lat": 47.7, "lng": 15.71667, "count": 6}, {"name": "Lissabon", "lat": 38.71667, "lng": -9.13333, "count": 6}, {"name": "Gösing an der Mariazeller Bahn", "lat": 47.88677, "lng": 15.29108, "count": 6}, {"name": "Bregenz", "lat": 47.50311, "lng": 9.7471, "count": 6}, {"name": "Lochau", "lat": 47.53333, "lng": 9.75, "count": 6}, {"name": "Zuoz", "lat": 46.60206, "lng": 9.95965, "count": 6}, {"name": "Las Palmas de Gran Canaria", "lat": 28.09973, "lng": -15.41343, "count": 6}, {"name": "Penzing", "lat": 48.2, "lng": 16.26667, "count": 6}, {"name": "Sofienalpe", "lat": 48.244807, "lng": 16.226574, "count": 6}, {"name": "Mödling", "lat": 48.08605, "lng": 16.28921, "count": 6}, {"name": "Scheveningen", "lat": 52.10461, "lng": 4.27557, "count": 5}, {"name": "Königssee", "lat": 47.55567, "lng": 12.97802, "count": 5}, {"name": "Mariazell", "lat": 47.77306, "lng": 15.31639, "count": 5}, {"name": "Kirchau", "lat": 47.65, "lng": 16.1, "count": 5}, {"name": "Carbonin", "lat": 46.62111, "lng": 12.21722, "count": 5}, {"name": "Wiener Neustadt", "lat": 47.8, "lng": 16.25, "count": 5}, {"name": "Krems", "lat": 48.40921, "lng": 15.61415, "count": 5}, {"name": "Grand Hotel Stockholm", "lat": 59.329722, "lng": 18.075556, "count": 5}, {"name": "Glion", "lat": 46.4336, "lng": 6.92619, "count": 5}, {"name": "Genf", "lat": 46.20222, "lng": 6.14569, "count": 5}, {"name": "Split", "lat": 43.5, "lng": 16.433333, "count": 5}, {"name": "Puchberg am Schneeberg", "lat": 47.78709, "lng": 15.91352, "count": 5}, {"name": "Admont", "lat": 47.57537, "lng": 14.46075, "count": 5}, {"name": "Nizza", "lat": 43.70313, "lng": 7.26608, "count": 5}, {"name": "Hochschneeberg", "lat": 47.775833, "lng": 15.8075, "count": 5}, {"name": "Palermo", "lat": 38.13205, "lng": 13.33561, "count": 5}, {"name": "Teplice", "lat": 50.6404, "lng": 13.82451, "count": 5}, {"name": "Hotel du Lac", "lat": 45.883097, "lng": 10.852736, "count": 5}, {"name": "Stuttgart", "lat": 48.78232, "lng": 9.17702, "count": 5}, {"name": "Kahlenberg", "lat": 48.27617, "lng": 16.33255, "count": 5}, {"name": "Hochroterd", "lat": 48.13047, "lng": 16.11437, "count": 5}, {"name": "Kierling", "lat": 48.30997, "lng": 16.27616, "count": 5}, {"name": "Grunewald", "lat": 52.48338, "lng": 13.26586, "count": 5}, {"name": "Tiergarten", "lat": 52.51667, "lng": 13.36667, "count": 5}, {"name": "Salmannsdorf", "lat": 48.25, "lng": 16.3, "count": 5}, {"name": "Franzensbad", "lat": 50.12033, "lng": 12.35174, "count": 5}, {"name": "Gersthof", "lat": 48.23333, "lng": 16.31667, "count": 5}, {"name": "IV., Wieden", "lat": 48.19198, "lng": 16.36714, "count": 5}, {"name": "Mainz", "lat": 49.98419, "lng": 8.2791, "count": 4}, {"name": "Golling an der Salzach", "lat": 47.6, "lng": 13.16667, "count": 4}, {"name": "Lend", "lat": 47.28075, "lng": 13.02265, "count": 4}, {"name": "Lienz", "lat": 46.8289, "lng": 12.76903, "count": 4}, {"name": "Davos", "lat": 46.80429, "lng": 9.83723, "count": 4}, {"name": "Le Prese", "lat": 46.29313, "lng": 10.07889, "count": 4}, {"name": "Bormio", "lat": 46.46717, "lng": 10.37008, "count": 4}, {"name": "Grundlsee", "lat": 47.63333, "lng": 13.86667, "count": 4}, {"name": "Gloggnitz", "lat": 47.67487, "lng": 15.93893, "count": 4}, {"name": "Tulln", "lat": 48.32829, "lng": 16.05858, "count": 4}, {"name": "Bad Tölz", "lat": 47.76111, "lng": 11.5589, "count": 4}, {"name": "Hotel zum Kronprinzen", "lat": 53.553694, "lng": 10.008484, "count": 4}, {"name": "Steindorf am Ossiacher See", "lat": 46.6992, "lng": 13.98892, "count": 4}, {"name": "Basel", "lat": 47.55839, "lng": 7.57327, "count": 4}, {"name": "Bologna", "lat": 44.49381, "lng": 11.33875, "count": 4}, {"name": "Padua", "lat": 45.40797, "lng": 11.88586, "count": 4}, {"name": "Faakersee", "lat": 46.5775, "lng": 13.92556, "count": 4}, {"name": "Spittal an der Drau", "lat": 46.8, "lng": 13.5, "count": 4}, {"name": "Niederdorf", "lat": 46.73781, "lng": 12.17266, "count": 4}, {"name": "Gstatterboden", "lat": 47.6, "lng": 14.63333, "count": 4}, {"name": "Gasthaus Brunnthaler", "lat": 47.6417738, "lng": 13.7682587, "count": 4}, {"name": "Gasthaus Post", "lat": 47.61105, "lng": 13.78655, "count": 4}, {"name": "Feldkirch", "lat": 47.23306, "lng": 9.6, "count": 4}, {"name": "Waidbruck", "lat": 46.59712, "lng": 11.53088, "count": 4}, {"name": "Hotel und Pension Nelböck", "lat": 47.808997, "lng": 13.045141, "count": 4}, {"name": "Weimar", "lat": 50.97361, "lng": 11.33806, "count": 4}, {"name": "Lake Bohinj", "lat": 46.28556, "lng": 13.86194, "count": 4}, {"name": "Mönichkirchen", "lat": 47.51062, "lng": 16.03425, "count": 4}, {"name": "Außig", "lat": 51.40574, "lng": 13.19159, "count": 4}, {"name": "Bergün", "lat": 46.62934, "lng": 9.74762, "count": 4}, {"name": "Dornbacher Park", "lat": 48.241960480337, "lng": 16.276509500872, "count": 4}, {"name": "Brühl", "lat": 48.08509, "lng": 16.24801, "count": 4}, {"name": "St. Andrä-Wördern", "lat": 48.327778, "lng": 16.209444, "count": 4}, {"name": "XII., Meidling", "lat": 48.17192, "lng": 16.32586, "count": 4}, {"name": "Weidlingbach", "lat": 48.26667, "lng": 16.25, "count": 4}, {"name": "Schillertheater", "lat": 52.511709, "lng": 13.318058, "count": 4}, {"name": "Pontresina", "lat": 46.4955, "lng": 9.90126, "count": 4}, {"name": "Bad Ems", "lat": 50.33544, "lng": 7.71369, "count": 3}, {"name": "Maria Loretto", "lat": 46.61667, "lng": 14.25, "count": 3}, {"name": "Millstatt", "lat": 46.82295, "lng": 13.60447, "count": 3}, {"name": "Bernina (Bezirk)", "lat": 46.30994, "lng": 10.08814, "count": 3}, {"name": "Brunnen", "lat": 46.9936, "lng": 8.60538, "count": 3}, {"name": "Locarno", "lat": 46.17086, "lng": 8.79953, "count": 3}, {"name": "Brighton", "lat": 50.82838, "lng": -0.13947, "count": 3}, {"name": "Brüssel", "lat": 50.85045, "lng": 4.34878, "count": 3}, {"name": "Eisenerz", "lat": 47.54607, "lng": 14.88837, "count": 3}, {"name": "Weichselboden", "lat": 47.66667, "lng": 15.16667, "count": 3}, {"name": "Gumpoldskirchen", "lat": 48.04538, "lng": 16.2771, "count": 3}, {"name": "Guntramsdorf", "lat": 48.04808, "lng": 16.3241, "count": 3}, {"name": "Kirchberg am Wechsel", "lat": 47.60738, "lng": 15.99103, "count": 3}, {"name": "Rekawinkel", "lat": 48.17936, "lng": 16.02433, "count": 3}, {"name": "St. Pölten", "lat": 48.2, "lng": 15.63333, "count": 3}, {"name": "Gutenstein", "lat": 47.875833333333, "lng": 15.889166666667, "count": 3}, {"name": "Bad Reichenhall", "lat": 47.730685, "lng": 12.882423, "count": 3}, {"name": "Starnberger See", "lat": 47.90348, "lng": 11.31187, "count": 3}, {"name": "Oslo", "lat": 59.91273, "lng": 10.74609, "count": 3}, {"name": "Mürzzuschlag", "lat": 47.6066, "lng": 15.67226, "count": 3}, {"name": "Krieglach", "lat": 47.54728, "lng": 15.56248, "count": 3}, {"name": "Fusch an der Großglocknerstraße", "lat": 47.22729, "lng": 12.82727, "count": 3}, {"name": "Lausanne", "lat": 46.516, "lng": 6.63282, "count": 3}, {"name": "Veytaux, château de Chillon", "lat": 46.41417, "lng": 6.92872, "count": 3}, {"name": "Mürren", "lat": 46.5588, "lng": 7.8929, "count": 3}, {"name": "Grindelwald", "lat": 46.62396, "lng": 8.03601, "count": 3}, {"name": "Brienz", "lat": 46.7545, "lng": 8.03847, "count": 3}, {"name": "Kaltenleutgeben", "lat": 48.11646, "lng": 16.19956, "count": 3}, {"name": "Orahovica", "lat": 45.54, "lng": 17.88472, "count": 3}, {"name": "Hotel Deutscher Kaiser", "lat": 49.44914, "lng": 11.079535, "count": 3}, {"name": "Pola", "lat": 44.86833, "lng": 13.84806, "count": 3}, {"name": "Kotor", "lat": 42.42067, "lng": 18.76825, "count": 3}, {"name": "Waidhofen an der Ybbs", "lat": 47.96004, "lng": 14.77361, "count": 3}, {"name": "Bischofshofen", "lat": 47.41667, "lng": 13.21667, "count": 3}, {"name": "Julienhof", "lat": 48.010324, "lng": 16.238308, "count": 3}, {"name": "Pisa", "lat": 43.70853, "lng": 10.4036, "count": 3}, {"name": "Landeck", "lat": 47.12575, "lng": 10.56679, "count": 3}, {"name": "Brenner", "lat": 47.00528, "lng": 11.50836, "count": 3}, {"name": "Lavina Bianca", "lat": 46.47655, "lng": 11.55704, "count": 3}, {"name": "Sterzing", "lat": 46.89313, "lng": 11.42961, "count": 3}, {"name": "Windischgarsten", "lat": 47.72223, "lng": 14.32755, "count": 3}, {"name": "Pompei", "lat": 40.750556, "lng": 14.489722, "count": 3}, {"name": "Roquebrune-Cap-Martin", "lat": 43.76408, "lng": 7.48207, "count": 3}, {"name": "Korfu", "lat": 39.598055, "lng": 19.852222, "count": 3}, {"name": "Eisenach", "lat": 50.9807, "lng": 10.31522, "count": 3}, {"name": "Sëlva", "lat": 46.55472, "lng": 11.76038, "count": 3}, {"name": "Eibsee", "lat": 47.45601, "lng": 10.97311, "count": 3}, {"name": "Grüner Baum", "lat": 48.00909, "lng": 16.23376, "count": 3}, {"name": "Grand Hotel Venezia", "lat": 45.431739, "lng": 12.333875, "count": 3}, {"name": "Regensburg", "lat": 49.01513, "lng": 12.10161, "count": 3}, {"name": "Oosterbeek", "lat": 51.98583, "lng": 5.84583, "count": 3}, {"name": "Galitzinberg", "lat": 48.21667, "lng": 16.28333, "count": 3}, {"name": "Athen", "lat": 37.97945, "lng": 23.71622, "count": 3}, {"name": "Istanbul", "lat": 41.01384, "lng": 28.94966, "count": 3}, {"name": "Volksgarten", "lat": 48.20809, "lng": 16.36157, "count": 3}, {"name": "Peter Jordan Straße", "lat": 48.2371, "lng": 16.332489, "count": 3}, {"name": "Graben", "lat": 48.20883, "lng": 16.36951, "count": 3}, {"name": "Mauerbach", "lat": 48.24514, "lng": 16.16793, "count": 3}, {"name": "Hainbach", "lat": 48.23333, "lng": 16.2, "count": 3}, {"name": "Füssen", "lat": 47.57143, "lng": 10.70171, "count": 3}, {"name": "Wurstelprater", "lat": 48.214722, "lng": 16.402222, "count": 3}, {"name": "Haendelstraße", "lat": 52.512276, "lng": 13.629529, "count": 3}, {"name": "Hasenauerstraße", "lat": 48.233816866614, "lng": 16.337927920952, "count": 3}, {"name": "Dahlem", "lat": 52.4581, "lng": 13.28702, "count": 3}, {"name": "Stadtpark", "lat": 48.204824018066, "lng": 16.379608025302, "count": 3}, {"name": "Hartäckerpark", "lat": 48.239251, "lng": 16.334494, "count": 3}, {"name": "Laab im Walde", "lat": 48.15486, "lng": 16.17359, "count": 3}, {"name": "Pinkenkogel", "lat": 47.65, "lng": 15.81667, "count": 3}, {"name": "Königstetten", "lat": 48.30198, "lng": 16.14492, "count": 3}, {"name": "Zürich", "lat": 47.37174, "lng": 8.54226, "count": 3}, {"name": "Lausanne", "lat": 46.516, "lng": 6.63282, "count": 3}, {"name": "Montreux", "lat": 46.43301, "lng": 6.91143, "count": 3}, {"name": "Sommerhaidenweg", "lat": 48.248935842869, "lng": 16.296768550115, "count": 3}, {"name": "Wien Mauer", "lat": 48.15071, "lng": 16.26856, "count": 3}, {"name": "Thalheim bei Wels", "lat": 48.15, "lng": 14.03333, "count": 3}, {"name": "Radetzky", "lat": 48.0816, "lng": 16.2399, "count": 3}, {"name": "Laxenburg", "lat": 48.06833, "lng": 16.35607, "count": 3}, {"name": "Baden bei Wien", "lat": 48.00543, "lng": 16.23264, "count": 3}, {"name": "Ronacher", "lat": 48.205139, "lng": 16.375, "count": 3}, {"name": "Böckstein", "lat": 47.08333, "lng": 13.11667, "count": 2}, {"name": "Obervellach", "lat": 46.93667, "lng": 13.20417, "count": 2}, {"name": "Heiligenblut am Großglockner", "lat": 47.03979, "lng": 12.84345, "count": 2}, {"name": "Kals am Großglockner", "lat": 47.01702, "lng": 12.6583, "count": 2}, {"name": "Spital am Pyhrn", "lat": 47.66487, "lng": 14.34014, "count": 2}, {"name": "Millstätter See", "lat": 46.795, "lng": 13.579722, "count": 2}, {"name": "Morteratsch", "lat": 46.45112, "lng": 9.94077, "count": 2}, {"name": "Poschiavo", "lat": 46.32441, "lng": 10.05823, "count": 2}, {"name": "Bolladore", "lat": 46.32652, "lng": 10.31856, "count": 2}, {"name": "Stilfser Joch", "lat": 46.528333, "lng": 10.453333, "count": 2}, {"name": "Spondigna", "lat": 46.63368, "lng": 10.6134, "count": 2}, {"name": "Kammer", "lat": 47.94711, "lng": 13.59541, "count": 2}, {"name": "Unterach am Attersee", "lat": 47.80494, "lng": 13.48728, "count": 2}, {"name": "Weißenbach am Attersee", "lat": 47.8004, "lng": 13.5358, "count": 2}, {"name": "Arth", "lat": 47.06337, "lng": 8.52349, "count": 2}, {"name": "Rigi Kulm", "lat": 47.0555, "lng": 8.48447, "count": 2}, {"name": "Vitznau", "lat": 47.01014, "lng": 8.4842, "count": 2}, {"name": "Flüelen", "lat": 46.9028, "lng": 8.6249, "count": 2}, {"name": "Axenstein", "lat": 46.98613, "lng": 8.61619, "count": 2}, {"name": "Menaggio", "lat": 46.02075, "lng": 9.23907, "count": 2}, {"name": "Bellagio", "lat": 45.98772, "lng": 9.26182, "count": 2}, {"name": "Cadenabbia", "lat": 45.98861, "lng": 9.23615, "count": 2}, {"name": "Como", "lat": 45.80819, "lng": 9.0832, "count": 2}, {"name": "Ventnor", "lat": 50.59449, "lng": -1.20672, "count": 2}, {"name": "Newport", "lat": 50.70146, "lng": -1.29124, "count": 2}, {"name": "Traunkirchen", "lat": 47.84462, "lng": 13.78939, "count": 2}, {"name": "Almsee", "lat": 47.7526, "lng": 13.95658, "count": 2}, {"name": "Wildalpen", "lat": 47.65, "lng": 14.98333, "count": 2}, {"name": "Nagykanizsa", "lat": 46.45347, "lng": 16.99104, "count": 2}, {"name": "Pressbaum", "lat": 48.18333, "lng": 16.08333, "count": 2}, {"name": "Pieve di Cadore", "lat": 46.42302, "lng": 12.361, "count": 2}, {"name": "Seebenstein", "lat": 47.69936, "lng": 16.14484, "count": 2}, {"name": "Hainfeld", "lat": 48.0339, "lng": 15.77414, "count": 2}, {"name": "Lilienfeld", "lat": 48.01312, "lng": 15.59664, "count": 2}, {"name": "Wels", "lat": 48.16667, "lng": 14.03333, "count": 2}, {"name": "Bad Hall", "lat": 48.03832, "lng": 14.20773, "count": 2}, {"name": "Singerin", "lat": 47.77325, "lng": 15.73019, "count": 2}, {"name": "Klosterneuburg", "lat": 48.30521, "lng": 16.32522, "count": 2}, {"name": "Absdorf", "lat": 48.4, "lng": 15.98333, "count": 2}, {"name": "Lofer", "lat": 47.58475, "lng": 12.69333, "count": 2}, {"name": "Jenbach", "lat": 47.39173, "lng": 11.77245, "count": 2}, {"name": "Achen Lake", "lat": 47.46556, "lng": 11.70924, "count": 2}, {"name": "Heiligenkreuz", "lat": 48.05559, "lng": 16.12493, "count": 2}, {"name": "Lübeck", "lat": 53.86893, "lng": 10.68729, "count": 2}, {"name": "Voss", "lat": 60.62869, "lng": 6.41474, "count": 2}, {"name": "Trondheim", "lat": 63.43049, "lng": 10.39506, "count": 2}, {"name": "Bodensee", "lat": 49.06694, "lng": 8.35278, "count": 2}, {"name": "Hannover", "lat": 52.37052, "lng": 9.73322, "count": 2}, {"name": "Gaming", "lat": 47.929, "lng": 15.08818, "count": 2}, {"name": "Hallein", "lat": 47.68333, "lng": 13.1, "count": 2}, {"name": "Bruck an der Mur", "lat": 47.41667, "lng": 15.28333, "count": 2}, {"name": "Sankt Veit an der Glan", "lat": 46.76806, "lng": 14.36028, "count": 2}, {"name": "Schladming", "lat": 47.39289, "lng": 13.68699, "count": 2}, {"name": "Bruck an der Mur", "lat": 47.41667, "lng": 15.28333, "count": 2}, {"name": "St. Johann im Pongau", "lat": 47.35, "lng": 13.2, "count": 2}, {"name": "Kreuth", "lat": 47.64085, "lng": 11.74485, "count": 2}, {"name": "Delémont", "lat": 47.36493, "lng": 7.34453, "count": 2}, {"name": "Neuchâtel", "lat": 47.00942, "lng": 6.9381, "count": 2}, {"name": "Meiringen", "lat": 46.72709, "lng": 8.1872, "count": 2}, {"name": "Gletsch", "lat": 46.56226, "lng": 8.36196, "count": 2}, {"name": "Rosenburg", "lat": 48.62809, "lng": 15.64058, "count": 2}, {"name": "Belišće", "lat": 45.6799, "lng": 18.40073, "count": 2}, {"name": "Krumpendorf", "lat": 46.62526, "lng": 14.21664, "count": 2}, {"name": "Hotel Mosser", "lat": 46.616526, "lng": 13.849003, "count": 2}, {"name": "Braies", "lat": 46.72023, "lng": 12.13339, "count": 2}, {"name": "Prato Piazza", "lat": 46.64949, "lng": 12.18531, "count": 2}, {"name": "Misurina", "lat": 46.58108, "lng": 12.25275, "count": 2}, {"name": "Passo Tre Croci", "lat": 46.55672, "lng": 12.20259, "count": 2}, {"name": "Caprile", "lat": 46.43783, "lng": 11.99438, "count": 2}, {"name": "Vigo di Fassa", "lat": 46.41898, "lng": 11.67418, "count": 2}, {"name": "Paneveggio", "lat": 46.3, "lng": 11.73333, "count": 2}, {"name": "Biebrich", "lat": 50.0415, "lng": 8.24878, "count": 2}, {"name": "Rüdesheim", "lat": 49.9789, "lng": 7.92442, "count": 2}, {"name": "Sankt Michael in Obersteiermark", "lat": 47.33839, "lng": 15.01784, "count": 2}, {"name": "Alpenhaus Kesselfall", "lat": 47.216326, "lng": 12.726278, "count": 2}, {"name": "Krimml", "lat": 47.21799, "lng": 12.17487, "count": 2}, {"name": "Schruns", "lat": 47.07092, "lng": 9.94746, "count": 2}, {"name": "Gargellen", "lat": 46.96743, "lng": 9.91825, "count": 2}, {"name": "Trafoi", "lat": 46.5517, "lng": 10.50988, "count": 2}, {"name": "Brixen", "lat": 46.71503, "lng": 11.65598, "count": 2}, {"name": "Leoben", "lat": 47.3765, "lng": 15.09144, "count": 2}, {"name": "Hieflau", "lat": 47.60639, "lng": 14.74503, "count": 2}, {"name": "Agnetendorf", "lat": 50.816944, "lng": 15.609444, "count": 2}, {"name": "Vicenza", "lat": 45.54672, "lng": 11.5475, "count": 2}, {"name": "Fischerhütte", "lat": 47.772499956947584, "lng": 15.809797301585972, "count": 2}, {"name": "Malé", "lat": 46.35356, "lng": 10.91246, "count": 2}, {"name": "Palast Hotel Lido", "lat": 45.883272, "lng": 10.846236, "count": 2}, {"name": "Caldonazzo", "lat": 45.99367, "lng": 11.26426, "count": 2}, {"name": "Ancona", "lat": 43.5942, "lng": 13.50337, "count": 2}, {"name": "Sorrent", "lat": 40.62678, "lng": 14.37771, "count": 2}, {"name": "Syrakus", "lat": 37.07542, "lng": 15.28664, "count": 2}, {"name": "Messina", "lat": 38.19394, "lng": 15.55256, "count": 2}, {"name": "Villafranca in Lunigiana", "lat": 44.29844, "lng": 9.95347, "count": 2}, {"name": "Hotel Imperial", "lat": 42.64262, "lng": 18.10491, "count": 2}, {"name": "Sonnwendstein", "lat": 47.61667, "lng": 15.85, "count": 2}, {"name": "Hochschwab", "lat": 47.6, "lng": 15.08333, "count": 2}, {"name": "Gilleleje", "lat": 56.12196, "lng": 12.31056, "count": 2}, {"name": "Ilmenau", "lat": 50.6912, "lng": 10.9199, "count": 2}, {"name": "Oberhof", "lat": 50.705556, "lng": 10.725, "count": 2}, {"name": "Innichen", "lat": 46.7324, "lng": 12.27855, "count": 2}, {"name": "Taisten", "lat": 46.76891, "lng": 12.11397, "count": 2}, {"name": "Passo Pordoi", "lat": 46.48772, "lng": 11.81358, "count": 2}, {"name": "Rodaun", "lat": 48.132793312328, "lng": 16.256152195922, "count": 2}, {"name": "Burg Salegg", "lat": 46.536185, "lng": 11.558347, "count": 2}, {"name": "Hotel Salegg", "lat": 46.537267233027, "lng": 11.555829781650656, "count": 2}, {"name": "Palasthotel Prag", "lat": 50.0839, "lng": 14.42777, "count": 2}, {"name": "Ritz-Carlton Budapest", "lat": 47.497444816, "lng": 19.053534, "count": 2}, {"name": "Algiers", "lat": 36.73225, "lng": 3.08746, "count": 2}, {"name": "Southampton", "lat": 50.90395, "lng": -1.40428, "count": 2}, {"name": "Antwerp", "lat": 51.22047, "lng": 4.40026, "count": 2}, {"name": "Lunz am See", "lat": 47.8612, "lng": 15.02998, "count": 2}, {"name": "Elmau", "lat": 47.45998, "lng": 11.17985, "count": 2}, {"name": "Gosau", "lat": 47.58417, "lng": 13.53447, "count": 2}, {"name": "Sankt Peter am Wechsel", "lat": 47.55, "lng": 16.01667, "count": 2}, {"name": "Hotel Kaiserin Elisabeth", "lat": 47.94933649585533, "lng": 11.298363683529006, "count": 2}, {"name": "Liberec", "lat": 50.76711, "lng": 15.05619, "count": 2}, {"name": "Erlaufboden", "lat": 47.88333, "lng": 15.26667, "count": 2}, {"name": "Ulm", "lat": 48.39841, "lng": 9.99155, "count": 2}, {"name": "Freiburg im Breisgau", "lat": 47.9959, "lng": 7.85222, "count": 2}, {"name": "St. Gallen", "lat": 47.42391, "lng": 9.37477, "count": 2}, {"name": "Tirano", "lat": 46.21482, "lng": 10.16335, "count": 2}, {"name": "Chiavenna", "lat": 46.32063, "lng": 9.39816, "count": 2}, {"name": "Pátrai", "lat": 38.24444, "lng": 21.73444, "count": 2}, {"name": "Sintra", "lat": 38.80097, "lng": -9.37826, "count": 2}, {"name": "Brig", "lat": 46.31667, "lng": 7.98333, "count": 2}, {"name": "Klobenstein", "lat": 46.53861, "lng": 11.46552, "count": 2}, {"name": "Gersthofer Straße", "lat": 48.232758510924, "lng": 16.323609150468, "count": 2}, {"name": "V., Margareten", "lat": 48.18646, "lng": 16.35491, "count": 2}, {"name": "Satzberg", "lat": 48.21575, "lng": 16.26161, "count": 2}, {"name": "Triest", "lat": 45.66667, "lng": 13.76667, "count": 2}, {"name": "Dubrovnik", "lat": 42.64807, "lng": 18.09216, "count": 2}, {"name": "Piraeus", "lat": 37.94203, "lng": 23.64619, "count": 2}, {"name": "Beyoğlu", "lat": 41.03694, "lng": 28.9775, "count": 2}, {"name": "Bosporus", "lat": 41.10164, "lng": 29.06097, "count": 2}, {"name": "Lido", "lat": 45.4105, "lng": 12.36649, "count": 2}, {"name": "Pressbaum", "lat": 48.18333, "lng": 16.08333, "count": 2}, {"name": "Heiligenkreuz", "lat": 48.05559, "lng": 16.12493, "count": 2}, {"name": "Rathauspark", "lat": 48.2109, "lng": 16.35978, "count": 2}, {"name": "Tulbing", "lat": 48.2794, "lng": 16.12209, "count": 2}, {"name": "Seitenstettengasse", "lat": 48.21171, "lng": 16.37448, "count": 2}, {"name": "Weidling", "lat": 48.291, "lng": 16.30865, "count": 2}, {"name": "Lainz", "lat": 48.17381, "lng": 16.28929, "count": 2}, {"name": "Neuschwanstein Castle", "lat": 47.55718, "lng": 10.74935, "count": 2}, {"name": "Schwan See", "lat": 47.55718, "lng": 10.71957, "count": 2}, {"name": "Währing", "lat": 48.23123, "lng": 16.29337, "count": 2}, {"name": "Matthäikirchstr.", "lat": 52.50969, "lng": 13.368132, "count": 2}, {"name": "Kahlenbergerdorf", "lat": 48.27475, "lng": 16.35468, "count": 2}, {"name": "Kaasgraben", "lat": 48.253174, "lng": 16.332896, "count": 2}, {"name": "Hintersdorf", "lat": 48.3, "lng": 16.21667, "count": 2}, {"name": "Kalksburg", "lat": 48.13754, "lng": 16.24599, "count": 2}, {"name": "Wiener Neustadt", "lat": 47.8, "lng": 16.25, "count": 2}, {"name": "Maria Schutz", "lat": 47.64168, "lng": 15.86924, "count": 2}, {"name": "Rodaun", "lat": 48.132793312328, "lng": 16.256152195922, "count": 2}, {"name": "Blaasstraße", "lat": 48.236893, "lng": 16.341417, "count": 2}, {"name": "Nürnberg", "lat": 49.45421, "lng": 11.07752, "count": 2}, {"name": "Unter den Linden", "lat": 52.51784, "lng": 13.38736, "count": 2}, {"name": "Riederberg", "lat": 48.25022, "lng": 16.09456, "count": 2}, {"name": "Liechtensteinstraße", "lat": 48.08347, "lng": 16.263789, "count": 2}, {"name": "Gloggnitz", "lat": 47.67487, "lng": 15.93893, "count": 2}, {"name": "New Danube", "lat": 48.2644, "lng": 16.37547, "count": 2}, {"name": "Lej da Staz", "lat": 46.49619, "lng": 9.86875, "count": 2}, {"name": "Prater Hauptallee", "lat": 48.208925, "lng": 16.405287, "count": 2}, {"name": "Ferrogasse", "lat": 48.233323, "lng": 16.323771, "count": 2}, {"name": "VI., Mariahilf", "lat": 48.19522, "lng": 16.35032, "count": 2}, {"name": "Steinhaus am Semmering", "lat": 47.61667, "lng": 15.8, "count": 2}, {"name": "Hochschulstraße", "lat": 48.234547, "lng": 16.337784, "count": 2}, {"name": "Linz", "lat": 48.30639, "lng": 14.28611, "count": 2}, {"name": "Weyer", "lat": 47.85717, "lng": 14.66409, "count": 2}]