[{"name": "Bad Ischl", "lat": 47.71109, "lng": 13.61893, "count": 463}, {"name": "Berlin", "lat": 52.52437, "lng": 13.41053, "count": 373}, {"name": "Semmering", "lat": 47.64224, "lng": 15.8241, "count": 237}, {"name": "Reichenau an der Rax", "lat": 47.7, "lng": 15.83333, "count": 202}, {"name": "Altaussee", "lat": 47.639444, "lng": 13.763333, "count": 189}, {"name": "Hinterbrühl", "lat": 48.08611, "lng": 16.24809, "count": 183}, {"name": "München", "lat": 48.13743, "lng": 11.57549, "count": 176}, {"name": "Salzburg", "lat": 47.80067, "lng": 13.04532, "count": 170}, {"name": "Baden bei Wien", "lat": 48.00543, "lng": 16.23264, "count": 138}, {"name": "Bad Vöslau", "lat": 47.96533, "lng": 16.21359, "count": 130}, {"name": "Bad Aussee", "lat": 47.60998, "lng": 13.78243, "count": 120}, {"name": "Mödling", "lat": 48.08605, "lng": 16.28921, "count": 110}, {"name": "Klosterneuburg", "lat": 48.30521, "lng": 16.32522, "count": 96}, {"name": "St. Moritz", "lat": 46.49937, "lng": 9.84327, "count": 80}, {"name": "London", "lat": 51.50853, "lng": -0.12574, "count": 77}, {"name": "Celerina", "lat": 46.5146, "lng": 9.8622, "count": 71}, {"name": "Welsberg-Taisten", "lat": 46.75774, "lng": 12.10556, "count": 70}, {"name": "Gmunden", "lat": 47.91839, "lng": 13.79933, "count": 69}, {"name": "Seis am Schlern", "lat": 46.54133, "lng": 11.55868, "count": 69}, {"name": "Brijuni", "lat": 44.91417, "lng": 13.76222, "count": 68}, {"name": "Rigi Kulm", "lat": 47.0555, "lng": 8.48447, "count": 66}, {"name": "Edlach", "lat": 47.69255, "lng": 15.80915, "count": 61}, {"name": "Venedig", "lat": 45.43713, "lng": 12.33265, "count": 58}, {"name": "Brühl", "lat": 48.08509, "lng": 16.24801, "count": 52}, {"name": "Garmisch-Partenkirchen", "lat": 47.49209, "lng": 11.09576, "count": 52}, {"name": "Bozen", "lat": 46.49067, "lng": 11.33982, "count": 51}, {"name": "Paris", "lat": 48.85341, "lng": 2.3488, "count": 45}, {"name": "Berchtesgaden", "lat": 47.63236, "lng": 13.00187, "count": 44}, {"name": "Helsingør", "lat": 56.03606, "lng": 12.6136, "count": 44}, {"name": "Payerbach", "lat": 47.69209, "lng": 15.8634, "count": 41}, {"name": "Pontresina", "lat": 46.4955, "lng": 9.90126, "count": 39}, {"name": "Traunkirchen", "lat": 47.84462, "lng": 13.78939, "count": 38}, {"name": "Baden-Baden", "lat": 48.7606, "lng": 8.23975, "count": 38}, {"name": "Innsbruck", "lat": 47.272569, "lng": 11.389534, "count": 37}, {"name": "Meran", "lat": 46.66817, "lng": 11.15953, "count": 37}, {"name": "St. Gilgen", "lat": 47.76667, "lng": 13.36667, "count": 36}, {"name": "Purkersdorf", "lat": 48.19512, "lng": 16.16265, "count": 35}, {"name": "Schafberg [St. Gilgen]", "lat": 47.77614, "lng": 13.43439, "count": 34}, {"name": "Marienbad", "lat": 49.96115, "lng": 12.72872, "count": 34}, {"name": "Luzern", "lat": 47.05048, "lng": 8.30635, "count": 32}, {"name": "Prag", "lat": 50.08333, "lng": 14.46667, "count": 32}, {"name": "Weidlingbach", "lat": 48.26667, "lng": 16.25, "count": 31}, {"name": "Vahrn", "lat": 46.73901, "lng": 11.63749, "count": 31}, {"name": "Breitenstein am Semmering", "lat": 47.65949, "lng": 15.82151, "count": 30}, {"name": "Bad Gastein", "lat": 47.11547, "lng": 13.13467, "count": 26}, {"name": "Grundlsee [Gemeinde]", "lat": 47.61667, "lng": 13.81667, "count": 25}, {"name": "Opatija", "lat": 45.33771, "lng": 14.30515, "count": 24}, {"name": "Würnitz", "lat": 48.41667, "lng": 16.41667, "count": 24}, {"name": "Steinriegl", "lat": 48.26667, "lng": 16.23333, "count": 24}, {"name": "Frankfurt am Main", "lat": 50.11552, "lng": 8.68417, "count": 23}, {"name": "Strobl", "lat": 47.71667, "lng": 13.48333, "count": 23}, {"name": "Skodsborg", "lat": 55.8225, "lng": 12.57324, "count": 23}, {"name": "Zürich", "lat": 47.37174, "lng": 8.54226, "count": 22}, {"name": "Ostende", "lat": 51.2119, "lng": 2.92711, "count": 22}, {"name": "Tutzing", "lat": 47.90938, "lng": 11.2803, "count": 21}, {"name": "Kopenhagen", "lat": 55.67594, "lng": 12.56553, "count": 21}, {"name": "Florenz", "lat": 43.77925, "lng": 11.24626, "count": 21}, {"name": "Carezza", "lat": 46.41147, "lng": 11.58817, "count": 21}, {"name": "Toblach", "lat": 46.72493, "lng": 12.22109, "count": 20}, {"name": "Hallstatt", "lat": 47.56231, "lng": 13.64912, "count": 20}, {"name": "Wiener Neustadt", "lat": 47.8, "lng": 16.25, "count": 20}, {"name": "Brunn am Gebirge", "lat": 48.10917, "lng": 16.29204, "count": 19}, {"name": "Prein an der Rax", "lat": 47.67383, "lng": 15.76452, "count": 19}, {"name": "Pinkenkogel", "lat": 47.65, "lng": 15.81667, "count": 19}, {"name": "Feldafing", "lat": 47.94602, "lng": 11.29326, "count": 19}, {"name": "Villach", "lat": 46.61254, "lng": 13.8529, "count": 18}, {"name": "Territet", "lat": 46.42863, "lng": 6.92122, "count": 18}, {"name": "Rom", "lat": 41.89193, "lng": 12.51133, "count": 18}, {"name": "Schwangau", "lat": 47.576666666667, "lng": 10.735277777778, "count": 18}, {"name": "Gloggnitz", "lat": 47.67487, "lng": 15.93893, "count": 17}, {"name": "Wolfgangsee", "lat": 47.752778, "lng": 13.397222, "count": 16}, {"name": "Lugano", "lat": 46.01008, "lng": 8.96004, "count": 16}, {"name": "Mailand", "lat": 45.46427, "lng": 9.18951, "count": 16}, {"name": "Heiligenkreuz", "lat": 48.04261, "lng": 16.15292, "count": 16}, {"name": "Dresden", "lat": 51.0833, "lng": 13.7666, "count": 16}, {"name": "Graz", "lat": 47.06667, "lng": 15.43333, "count": 16}, {"name": "Wiesbaden", "lat": 50.08258, "lng": 8.24932, "count": 15}, {"name": "Kaltenleutgeben", "lat": 48.11646, "lng": 16.19956, "count": 15}, {"name": "Nürnberg", "lat": 49.45421, "lng": 11.07752, "count": 15}, {"name": "Interlaken", "lat": 46.68387, "lng": 7.86638, "count": 15}, {"name": "Possenhofen", "lat": 47.95947, "lng": 11.31038, "count": 15}, {"name": "Samedan", "lat": 46.533611111111, "lng": 9.8719444444444, "count": 15}, {"name": "Adelboden", "lat": 46.49142, "lng": 7.56031, "count": 15}, {"name": "St. Pölten", "lat": 48.2, "lng": 15.63333, "count": 14}, {"name": "Amsterdam", "lat": 52.37403, "lng": 4.88969, "count": 14}, {"name": "Mondsee", "lat": 47.82715, "lng": 13.37969, "count": 14}, {"name": "Bad Ragaz", "lat": 47.00601, "lng": 9.50266, "count": 14}, {"name": "Gießhübl", "lat": 48.0978, "lng": 16.23479, "count": 14}, {"name": "Breslau", "lat": 51.10773, "lng": 17.03533, "count": 14}, {"name": "Mauerbach", "lat": 48.24514, "lng": 16.16793, "count": 14}, {"name": "Neapel", "lat": 40.85216, "lng": 14.26811, "count": 14}, {"name": "Linz", "lat": 48.3, "lng": 14.28333, "count": 13}, {"name": "Den Haag", "lat": 52.07667, "lng": 4.29861, "count": 13}, {"name": "St. Andrä-Wördern", "lat": 48.327778, "lng": 16.209444, "count": 13}, {"name": "St. Anton am Arlberg", "lat": 47.1275, "lng": 10.26372, "count": 13}, {"name": "Caux", "lat": 46.43241, "lng": 6.93855, "count": 13}, {"name": "Klagenfurt", "lat": 46.63333, "lng": 14.3, "count": 12}, {"name": "Velden am Wörthersee", "lat": 46.61901, "lng": 14.03129, "count": 12}, {"name": "Budapest", "lat": 47.49835, "lng": 19.04045, "count": 12}, {"name": "Kritzendorf", "lat": 48.32932, "lng": 16.30011, "count": 12}, {"name": "Riva del Garda", "lat": 45.88576, "lng": 10.84118, "count": 12}, {"name": "Stockholm", "lat": 59.325, "lng": 18.05, "count": 12}, {"name": "Genua", "lat": 44.40478, "lng": 8.94439, "count": 12}, {"name": "Königssee", "lat": 47.55567, "lng": 12.97802, "count": 11}, {"name": "Rijeka", "lat": 45.32673, "lng": 14.44241, "count": 11}, {"name": "Langenzersdorf", "lat": 48.30432, "lng": 16.36143, "count": 11}, {"name": "Gardone Riviera", "lat": 45.62499, "lng": 10.56527, "count": 11}, {"name": "Sonnwendstein", "lat": 47.629444, "lng": 15.86, "count": 11}, {"name": "Kierling", "lat": 48.30997, "lng": 16.27616, "count": 11}, {"name": "Hamburg", "lat": 53.55055, "lng": 9.993333, "count": 11}, {"name": "Pula", "lat": 44.86833, "lng": 13.84806, "count": 11}, {"name": "Chur", "lat": 46.8578, "lng": 9.5215, "count": 11}, {"name": "Bern", "lat": 46.9489, "lng": 7.4638, "count": 11}, {"name": "Hainbach", "lat": 48.23333, "lng": 16.2, "count": 10}, {"name": "Tulln an der Donau", "lat": 48.33327, "lng": 16.06409, "count": 10}, {"name": "Trient", "lat": 46.06787, "lng": 11.12108, "count": 10}, {"name": "Rettenbach", "lat": 47.73049, "lng": 13.65875, "count": 10}, {"name": "Perneck", "lat": 47.68972, "lng": 13.64618, "count": 10}, {"name": "Menton", "lat": 43.77649, "lng": 7.50435, "count": 10}, {"name": "Lago di Garda", "lat": 45.6316, "lng": 10.660517, "count": 10}, {"name": "Lupitsch", "lat": 47.6301, "lng": 13.7272, "count": 10}, {"name": "Zermatt", "lat": 45.98974, "lng": 7.75264, "count": 10}, {"name": "Neulengbach", "lat": 48.19745, "lng": 15.90219, "count": 9}, {"name": "Tegernsee", "lat": 47.7123, "lng": 11.7582, "count": 9}, {"name": "Triest", "lat": 45.66667, "lng": 13.76667, "count": 9}, {"name": "Gossensaß", "lat": 46.93857, "lng": 11.44245, "count": 9}, {"name": "Mendelpass", "lat": 46.416944, "lng": 11.207222, "count": 9}, {"name": "Kreuzberg [Breitenstein]", "lat": 47.66667, "lng": 15.81667, "count": 9}, {"name": "Lienz", "lat": 46.8289, "lng": 12.76903, "count": 8}, {"name": "Unterach am Attersee", "lat": 47.80494, "lng": 13.48728, "count": 8}, {"name": "Pressbaum", "lat": 48.18333, "lng": 16.08333, "count": 8}, {"name": "Melk", "lat": 48.22737, "lng": 15.33186, "count": 8}, {"name": "Wachau", "lat": 48.33333, "lng": 15.41667, "count": 8}, {"name": "Krems", "lat": 48.40921, "lng": 15.61415, "count": 8}, {"name": "Neuhaus", "lat": 47.99521, "lng": 16.04588, "count": 8}, {"name": "Verona", "lat": 45.4299, "lng": 10.98444, "count": 8}, {"name": "Neustift am Walde", "lat": 48.25, "lng": 16.3, "count": 8}, {"name": "Maria Schutz", "lat": 47.64168, "lng": 15.86924, "count": 8}, {"name": "Rax", "lat": 47.68897, "lng": 15.68948, "count": 8}, {"name": "Champfèr", "lat": 46.47635, "lng": 9.81002, "count": 8}, {"name": "Scuol", "lat": 46.79671, "lng": 10.29804, "count": 8}, {"name": "Cortina d’Ampezzo", "lat": 46.5369, "lng": 12.13903, "count": 7}, {"name": "Schönau am Königssee", "lat": 47.60055, "lng": 12.98704, "count": 7}, {"name": "Pörtschach am Wörthersee", "lat": 46.635556, "lng": 14.1425, "count": 7}, {"name": "Bratislava", "lat": 48.14816, "lng": 17.10674, "count": 7}, {"name": "Weißenbach am Attersee", "lat": 47.8004, "lng": 13.5358, "count": 7}, {"name": "Bad Goisern", "lat": 47.64671, "lng": 13.61429, "count": 7}, {"name": "Ebensee am Traunsee", "lat": 47.80716, "lng": 13.779, "count": 7}, {"name": "Mariazell", "lat": 47.77306, "lng": 15.31639, "count": 7}, {"name": "Weidling", "lat": 48.291, "lng": 16.30865, "count": 7}, {"name": "Brünn", "lat": 49.19522, "lng": 16.60796, "count": 7}, {"name": "Halle (Saale)", "lat": 51.48158, "lng": 11.97947, "count": 7}, {"name": "Breitenfurt bei Wien", "lat": 48.13333, "lng": 16.15, "count": 7}, {"name": "Karlsbad", "lat": 50.23271, "lng": 12.87117, "count": 7}, {"name": "Starnberger See", "lat": 47.90348, "lng": 11.31187, "count": 7}, {"name": "Königstetten", "lat": 48.30198, "lng": 16.14492, "count": 7}, {"name": "San Martino di Castrozza", "lat": 46.26667, "lng": 11.8, "count": 7}, {"name": "Dubrovnik", "lat": 42.64807, "lng": 18.09216, "count": 7}, {"name": "Laab im Walde", "lat": 48.15486, "lng": 16.17359, "count": 7}, {"name": "Thusis", "lat": 46.69729, "lng": 9.43908, "count": 7}, {"name": "Vatikan", "lat": 41.90225, "lng": 12.4533, "count": 7}, {"name": "Anninger", "lat": 48.04743, "lng": 16.246, "count": 7}, {"name": "Taormina", "lat": 37.85358, "lng": 15.28851, "count": 7}, {"name": "Hochroterd", "lat": 48.13047, "lng": 16.11437, "count": 7}, {"name": "Stuttgart", "lat": 48.78232, "lng": 9.17702, "count": 7}, {"name": "Lochau", "lat": 47.53333, "lng": 9.75, "count": 7}, {"name": "Forte dei Marmi", "lat": 43.96388, "lng": 10.17478, "count": 7}, {"name": "Bad Reichenhall", "lat": 47.730685, "lng": 12.882423, "count": 6}, {"name": "Köln", "lat": 50.93835, "lng": 6.95427, "count": 6}, {"name": "Nordsee", "lat": 55.33333, "lng": 3.0, "count": 6}, {"name": "Scheveningen", "lat": 52.10461, "lng": 4.27557, "count": 6}, {"name": "Spittal an der Drau", "lat": 46.8, "lng": 13.5, "count": 6}, {"name": "Rekawinkel", "lat": 48.17936, "lng": 16.02433, "count": 6}, {"name": "Neunkirchen", "lat": 47.72096, "lng": 16.08107, "count": 6}, {"name": "Korneuburg", "lat": 48.35, "lng": 16.33333, "count": 6}, {"name": "Greifenstein", "lat": 48.34667, "lng": 16.24226, "count": 6}, {"name": "Perchtoldsdorf", "lat": 48.11895, "lng": 16.25736, "count": 6}, {"name": "Kirchau", "lat": 47.65, "lng": 16.1, "count": 6}, {"name": "Sankt Wolfgang im Salzkammergut", "lat": 47.73932, "lng": 13.44666, "count": 6}, {"name": "Pfandl", "lat": 47.72085, "lng": 13.58348, "count": 6}, {"name": "Franzensbad", "lat": 50.12033, "lng": 12.35174, "count": 6}, {"name": "Lausanne", "lat": 46.516, "lng": 6.63282, "count": 6}, {"name": "Genf", "lat": 46.20222, "lng": 6.14569, "count": 6}, {"name": "Montreux", "lat": 46.45179, "lng": 6.94084, "count": 6}, {"name": "Potsdam", "lat": 52.39886, "lng": 13.06566, "count": 6}, {"name": "Puchberg am Schneeberg", "lat": 47.78709, "lng": 15.91352, "count": 6}, {"name": "Ponte Gardena", "lat": 46.59712, "lng": 11.53088, "count": 6}, {"name": "Palermo", "lat": 38.13205, "lng": 13.33561, "count": 6}, {"name": "Hirschwang an der Rax", "lat": 47.70526, "lng": 15.81139, "count": 6}, {"name": "Bürg-Vöstenhof", "lat": 47.716666666667, "lng": 15.966666666667, "count": 6}, {"name": "Gösing an der Mariazeller Bahn", "lat": 47.88677, "lng": 15.29108, "count": 6}, {"name": "Zuoz", "lat": 46.60181, "lng": 9.96031, "count": 6}, {"name": "Füssen", "lat": 47.57143, "lng": 10.70171, "count": 6}, {"name": "Alpsee", "lat": 47.5493, "lng": 10.72394, "count": 6}, {"name": "Jenbach", "lat": 47.39295, "lng": 11.7746, "count": 5}, {"name": "Heiligenblut am Großglockner", "lat": 47.03979, "lng": 12.84345, "count": 5}, {"name": "Wörthersee", "lat": 46.62917, "lng": 14.12306, "count": 5}, {"name": "Zell am See", "lat": 47.32556, "lng": 12.79444, "count": 5}, {"name": "Le Prese", "lat": 46.29313, "lng": 10.07889, "count": 5}, {"name": "Brunnen", "lat": 46.9936, "lng": 8.60538, "count": 5}, {"name": "Himberg", "lat": 48.08333, "lng": 16.43333, "count": 5}, {"name": "Laxenburg", "lat": 48.05729, "lng": 16.35754, "count": 5}, {"name": "Leopoldskron", "lat": 47.78333, "lng": 13.03333, "count": 5}, {"name": "Guntramsdorf", "lat": 48.04808, "lng": 16.3241, "count": 5}, {"name": "Lainz", "lat": 48.17381, "lng": 16.28929, "count": 5}, {"name": "Loser", "lat": 47.65, "lng": 13.76667, "count": 5}, {"name": "Sandling", "lat": 47.656317, "lng": 13.714263, "count": 5}, {"name": "Salò", "lat": 45.60685, "lng": 10.5205, "count": 5}, {"name": "Adlitzgraben", "lat": 47.65736, "lng": 15.80388, "count": 5}, {"name": "Siegenfeld", "lat": 48.0366, "lng": 16.17591, "count": 5}, {"name": "Sulz im Wienerwald", "lat": 48.1008317, "lng": 16.1374028, "count": 5}, {"name": "Mürzzuschlag", "lat": 47.61131, "lng": 15.67877, "count": 5}, {"name": "Bischofshofen", "lat": 47.41667, "lng": 13.21667, "count": 5}, {"name": "Schneeberg", "lat": 47.775833, "lng": 15.8075, "count": 5}, {"name": "Admont", "lat": 47.574904, "lng": 14.460776, "count": 5}, {"name": "Nizza", "lat": 43.70313, "lng": 7.26608, "count": 5}, {"name": "Monte Carlo", "lat": 43.73976, "lng": 7.42732, "count": 5}, {"name": "Rodaun", "lat": 48.132793312328, "lng": 16.256152195922, "count": 5}, {"name": "Feldkirch", "lat": 47.23608, "lng": 9.59825, "count": 5}, {"name": "Weissenbach bei Mödling", "lat": 48.08009, "lng": 16.22106, "count": 5}, {"name": "Madonna di Campiglio", "lat": 46.22671, "lng": 10.82582, "count": 5}, {"name": "Teplice", "lat": 50.6404, "lng": 13.82451, "count": 5}, {"name": "Ústí nad Labem", "lat": 50.6607, "lng": 14.03227, "count": 5}, {"name": "Weimar", "lat": 50.97361, "lng": 11.33806, "count": 5}, {"name": "Völser Weiher", "lat": 46.523468, "lng": 11.523349, "count": 5}, {"name": "Seiser Alm", "lat": 46.541111, "lng": 11.644722, "count": 5}, {"name": "Buchs", "lat": 47.1664, "lng": 9.4735, "count": 5}, {"name": "Lissabon", "lat": 38.71667, "lng": -9.13333, "count": 5}, {"name": "Lej da Staz", "lat": 46.49619, "lng": 9.86875, "count": 5}, {"name": "Riederberg", "lat": 48.25022, "lng": 16.09456, "count": 5}, {"name": "Bischofswiesen", "lat": 47.649444444444, "lng": 12.963888888889, "count": 5}, {"name": "Tarasp", "lat": 46.77696, "lng": 10.25848, "count": 5}, {"name": "Bregenz", "lat": 47.50311, "lng": 9.7471, "count": 5}, {"name": "Latemar", "lat": 46.366667, "lng": 11.566667, "count": 5}, {"name": "Las Palmas de Gran Canaria", "lat": 28.09973, "lng": -15.41343, "count": 5}, {"name": "Maxthal", "lat": 49.75, "lng": 15.0, "count": 5}, {"name": "Brenner", "lat": 47.00528, "lng": 11.50836, "count": 4}, {"name": "Bad Ems", "lat": 50.33544, "lng": 7.71369, "count": 4}, {"name": "Golling an der Salzach", "lat": 47.6, "lng": 13.16667, "count": 4}, {"name": "Hallein", "lat": 47.68333, "lng": 13.1, "count": 4}, {"name": "Lend", "lat": 47.28075, "lng": 13.02265, "count": 4}, {"name": "St. Johann im Pongau", "lat": 47.35, "lng": 13.2, "count": 4}, {"name": "Davos", "lat": 46.80429, "lng": 9.83723, "count": 4}, {"name": "Bormio", "lat": 46.46717, "lng": 10.37008, "count": 4}, {"name": "Vitznau", "lat": 47.01014, "lng": 8.4842, "count": 4}, {"name": "Gosaumühle", "lat": 47.58333, "lng": 13.65, "count": 4}, {"name": "Traunsee", "lat": 47.85, "lng": 13.8, "count": 4}, {"name": "Helenental", "lat": 48.018611, "lng": 16.181389, "count": 4}, {"name": "Gumpoldskirchen", "lat": 48.04538, "lng": 16.2771, "count": 4}, {"name": "Leobersdorf", "lat": 47.92796, "lng": 16.21651, "count": 4}, {"name": "Leipzig", "lat": 51.33962, "lng": 12.37129, "count": 4}, {"name": "Scheiblingkirchen", "lat": 47.33333, "lng": 13.33333, "count": 4}, {"name": "Volosko", "lat": 45.34889, "lng": 14.3175, "count": 4}, {"name": "Anzenau", "lat": 47.6645, "lng": 13.61014, "count": 4}, {"name": "Gutenstein", "lat": 47.875833333333, "lng": 15.889166666667, "count": 4}, {"name": "Steeg", "lat": 47.6, "lng": 13.63333, "count": 4}, {"name": "Bergheim", "lat": 47.85257, "lng": 13.03253, "count": 4}, {"name": "Bad Tölz", "lat": 47.76111, "lng": 11.5589, "count": 4}, {"name": "Nymphenburg", "lat": 48.15853, "lng": 11.49857, "count": 4}, {"name": "Alland", "lat": 48.03953, "lng": 16.08085, "count": 4}, {"name": "Bodensee", "lat": 47.58333, "lng": 9.46667, "count": 4}, {"name": "Bruck an der Mur", "lat": 47.41667, "lng": 15.28333, "count": 4}, {"name": "Steindorf am Ossiacher See", "lat": 46.6992, "lng": 13.98892, "count": 4}, {"name": "Basel", "lat": 47.55839, "lng": 7.57327, "count": 4}, {"name": "Schloss Chillon", "lat": 46.414167, "lng": 6.9275, "count": 4}, {"name": "Glion", "lat": 46.4336, "lng": 6.92619, "count": 4}, {"name": "Genfer See", "lat": 46.43774, "lng": 6.46906, "count": 4}, {"name": "Bologna", "lat": 44.49381, "lng": 11.33875, "count": 4}, {"name": "Padua", "lat": 45.40797, "lng": 11.88586, "count": 4}, {"name": "Innichen", "lat": 46.7324, "lng": 12.27855, "count": 4}, {"name": "Niederdorf", "lat": 46.73781, "lng": 12.17266, "count": 4}, {"name": "Braies", "lat": 46.72023, "lng": 12.13339, "count": 4}, {"name": "Raxalpe", "lat": 47.7, "lng": 15.71667, "count": 4}, {"name": "Split", "lat": 43.5, "lng": 16.433333, "count": 4}, {"name": "Amstetten", "lat": 48.10062, "lng": 14.82711, "count": 4}, {"name": "Landeck", "lat": 47.13988, "lng": 10.56593, "count": 4}, {"name": "Windischgarsten", "lat": 47.72223, "lng": 14.32755, "count": 4}, {"name": "Exelberg", "lat": 48.24737, "lng": 16.24604, "count": 4}, {"name": "Korfu", "lat": 39.598055, "lng": 19.852222, "count": 4}, {"name": "Hellebæk", "lat": 56.06823, "lng": 12.55782, "count": 4}, {"name": "Hillerød", "lat": 55.92791, "lng": 12.30081, "count": 4}, {"name": "Ochnerhöhe", "lat": 47.65, "lng": 15.78333, "count": 4}, {"name": "Ribčev Laz", "lat": 46.272933333333, "lng": 13.891441666667, "count": 4}, {"name": "Gries-Quirein", "lat": 46.500379, "lng": 11.33888889, "count": 4}, {"name": "Steinhaus am Semmering", "lat": 47.61667, "lng": 15.8, "count": 4}, {"name": "Klobenstein", "lat": 46.53861, "lng": 11.46552, "count": 4}, {"name": "Oberes Isartal", "lat": 47.75807, "lng": 11.43322, "count": 4}, {"name": "?? [Mittelmeer, südlich der brionischen Inseln]", "lat": 44.8851, "lng": 13.7535, "count": 4}, {"name": "?? [Mittelmeer, östlich der brionischen Inseln]", "lat": 44.9164, "lng": 13.7878, "count": 4}, {"name": "?? [Mittelmeer, westlich der brionischen Inseln]", "lat": 44.9186, "lng": 13.712, "count": 4}, {"name": "?? [Mittelmeer, nördlich der brionischen Inseln]", "lat": 44.9466, "lng": 13.7442, "count": 4}, {"name": "Kap Peneda", "lat": 44.88762, "lng": 13.75302, "count": 4}, {"name": "Tirano", "lat": 46.21482, "lng": 10.16335, "count": 4}, {"name": "Regensburg", "lat": 49.01513, "lng": 12.10161, "count": 4}, {"name": "Bergün", "lat": 46.62934, "lng": 9.74762, "count": 4}, {"name": "Starnberg", "lat": 48.00193, "lng": 11.34416, "count": 4}, {"name": "Ramsau bei Berchtesgaden", "lat": 47.60703, "lng": 12.90065, "count": 4}, {"name": "Innschlucht", "lat": 46.506997, "lng": 9.860075, "count": 4}, {"name": "?? [nicht näher bestimmter Punkt zwischen Lissabon und Las Palmas]", "lat": 34.071, "lng": -12.162, "count": 4}, {"name": "Kapelln", "lat": 48.25, "lng": 15.75, "count": 4}, {"name": "Achensee", "lat": 47.462, "lng": 11.709, "count": 3}, {"name": "Franzensfeste", "lat": 46.78333, "lng": 11.6, "count": 3}, {"name": "Mainz", "lat": 49.98419, "lng": 8.2791, "count": 3}, {"name": "Nassfeld", "lat": 47.05, "lng": 13.05, "count": 3}, {"name": "Spital am Pyhrn", "lat": 47.66487, "lng": 14.34014, "count": 3}, {"name": "Bernina [Bezirk]", "lat": 46.30994, "lng": 10.08814, "count": 3}, {"name": "Altmünster", "lat": 47.90092, "lng": 13.76415, "count": 3}, {"name": "Flüelen", "lat": 46.9028, "lng": 8.6249, "count": 3}, {"name": "Morschach", "lat": 46.97149, "lng": 8.64802, "count": 3}, {"name": "Locarno", "lat": 46.17086, "lng": 8.79953, "count": 3}, {"name": "Menaggio", "lat": 46.02075, "lng": 9.23907, "count": 3}, {"name": "Bellagio", "lat": 45.98745, "lng": 9.26199, "count": 3}, {"name": "Naiftal", "lat": 46.67159, "lng": 11.22485, "count": 3}, {"name": "Ponte Adige", "lat": 46.4856, "lng": 11.29882, "count": 3}, {"name": "Brighton", "lat": 50.82838, "lng": -0.13947, "count": 3}, {"name": "Brüssel", "lat": 50.85045, "lng": 4.34878, "count": 3}, {"name": "Eisenerz", "lat": 47.54607, "lng": 14.88837, "count": 3}, {"name": "Weichselboden", "lat": 47.66667, "lng": 15.16667, "count": 3}, {"name": "Kreuttal", "lat": 48.433333333333, "lng": 16.483333333333, "count": 3}, {"name": "Gaisberg", "lat": 47.805528, "lng": 13.111944, "count": 3}, {"name": "Absdorf", "lat": 48.4, "lng": 15.98333, "count": 3}, {"name": "Schleinbach", "lat": 48.41992, "lng": 16.47809, "count": 3}, {"name": "Murano", "lat": 45.45857, "lng": 12.35683, "count": 3}, {"name": "Ika", "lat": 45.30361, "lng": 14.28167, "count": 3}, {"name": "Lovran", "lat": 45.29194, "lng": 14.27417, "count": 3}, {"name": "Seebenstein", "lat": 47.69936, "lng": 16.14484, "count": 3}, {"name": "Kirchberg am Wechsel", "lat": 47.60738, "lng": 15.99103, "count": 3}, {"name": "Stockerau", "lat": 48.38333, "lng": 16.21667, "count": 3}, {"name": "Singerin", "lat": 47.77325, "lng": 15.73019, "count": 3}, {"name": "Groß-Enzersdorf", "lat": 48.20278, "lng": 16.55083, "count": 3}, {"name": "Lambach", "lat": 48.09253, "lng": 13.86954, "count": 3}, {"name": "Plomberg", "lat": 47.81491, "lng": 13.36534, "count": 3}, {"name": "Gablitz", "lat": 48.23082, "lng": 16.13528, "count": 3}, {"name": "Mayerling", "lat": 48.04469, "lng": 16.09694, "count": 3}, {"name": "Oslo", "lat": 59.91273, "lng": 10.74609, "count": 3}, {"name": "Djurgården", "lat": 59.32548, "lng": 18.10616, "count": 3}, {"name": "Saltsjöbaden", "lat": 59.28333, "lng": 18.3, "count": 3}, {"name": "Krieglach", "lat": 47.54728, "lng": 15.56248, "count": 3}, {"name": "Fusch an der Großglocknerstraße", "lat": 47.22729, "lng": 12.82727, "count": 3}, {"name": "Vevey", "lat": 46.46299, "lng": 6.84345, "count": 3}, {"name": "Mürren", "lat": 46.5588, "lng": 7.8929, "count": 3}, {"name": "Grindelwald", "lat": 46.62396, "lng": 8.03601, "count": 3}, {"name": "Belišće", "lat": 45.6799, "lng": 18.40073, "count": 3}, {"name": "Orahovica", "lat": 45.54, "lng": 17.88472, "count": 3}, {"name": "Carbonin", "lat": 46.62111, "lng": 12.21722, "count": 3}, {"name": "Predazzo", "lat": 46.316666666667, "lng": 11.6, "count": 3}, {"name": "Paneveggio", "lat": 46.3, "lng": 11.73333, "count": 3}, {"name": "Solin", "lat": 43.5, "lng": 16.5, "count": 3}, {"name": "Waidhofen an der Ybbs", "lat": 47.96004, "lng": 14.77361, "count": 3}, {"name": "Gstatterboden", "lat": 47.6, "lng": 14.63333, "count": 3}, {"name": "Küb", "lat": 47.68076, "lng": 15.88039, "count": 3}, {"name": "Ritten", "lat": 46.54039, "lng": 11.457027, "count": 3}, {"name": "Fiesole", "lat": 43.80455, "lng": 11.29487, "count": 3}, {"name": "Brixen", "lat": 46.71503, "lng": 11.65598, "count": 3}, {"name": "Lavina Bianca", "lat": 46.47655, "lng": 11.55704, "count": 3}, {"name": "Sterzing", "lat": 46.89313, "lng": 11.42961, "count": 3}, {"name": "Prießnitztal", "lat": 48.06713, "lng": 16.28142, "count": 3}, {"name": "Torcello", "lat": 45.49794, "lng": 12.41785, "count": 3}, {"name": "Hochschneeberg", "lat": 47.775833, "lng": 15.8075, "count": 3}, {"name": "Raach am Hochgebirge", "lat": 47.63333, "lng": 15.93333, "count": 3}, {"name": "Malé", "lat": 46.35356, "lng": 10.91246, "count": 3}, {"name": "Pompeji", "lat": 40.750556, "lng": 14.489722, "count": 3}, {"name": "Höllental", "lat": 47.71667, "lng": 15.81667, "count": 3}, {"name": "Scharfling", "lat": 47.79843, "lng": 13.39568, "count": 3}, {"name": "Roquebrune-Cap-Martin", "lat": 43.76408, "lng": 7.48207, "count": 3}, {"name": "Hornbæk", "lat": 56.09027, "lng": 12.45693, "count": 3}, {"name": "Eisenach", "lat": 50.9807, "lng": 10.31522, "count": 3}, {"name": "Wocheiner See", "lat": 46.283889, "lng": 13.867222, "count": 3}, {"name": "Olang", "lat": 46.76027, "lng": 12.02951, "count": 3}, {"name": "Urtijëi", "lat": 46.57603, "lng": 11.67176, "count": 3}, {"name": "Passo Pordoi", "lat": 46.48772, "lng": 11.81358, "count": 3}, {"name": "Spital am Semmering", "lat": 47.61345, "lng": 15.75096, "count": 3}, {"name": "Rissersee", "lat": 47.478501, "lng": 11.080485, "count": 3}, {"name": "San Vigilio", "lat": 46.69884, "lng": 11.93104, "count": 3}, {"name": "Aspang-Markt", "lat": 47.55187, "lng": 16.09421, "count": 3}, {"name": "Mönichkirchen [Niederösterreich]", "lat": 47.511667, "lng": 16.035833, "count": 3}, {"name": "?? [Atlantik, westlich von Frankreich]", "lat": 46.38, "lng": -8.0, "count": 3}, {"name": "Hintersdorf", "lat": 48.3, "lng": 16.21667, "count": 3}, {"name": "Altausseer See", "lat": 47.6417, "lng": 13.7861, "count": 3}, {"name": "Arnhem", "lat": 51.98, "lng": 5.91111, "count": 3}, {"name": "Oosterbeek", "lat": 51.98583, "lng": 5.84583, "count": 3}, {"name": "Passau", "lat": 48.573333, "lng": 13.456944, "count": 3}, {"name": "Viareggio", "lat": 43.866667, "lng": 10.233333, "count": 3}, {"name": "Athen", "lat": 37.97945, "lng": 23.71622, "count": 3}, {"name": "Istanbul", "lat": 41.01384, "lng": 28.94966, "count": 3}, {"name": "Achenkirch", "lat": 47.52659, "lng": 11.70559, "count": 2}, {"name": "Winklern", "lat": 46.87361, "lng": 12.87472, "count": 2}, {"name": "Dölsach", "lat": 46.85721, "lng": 12.83416, "count": 2}, {"name": "Maria Wörth", "lat": 46.61639, "lng": 14.16306, "count": 2}, {"name": "Obersee", "lat": 47.51602, "lng": 12.98806, "count": 2}, {"name": "Obervellach", "lat": 46.93667, "lng": 13.20417, "count": 2}, {"name": "Kals am Großglockner", "lat": 47.01702, "lng": 12.6583, "count": 2}, {"name": "Millstatt", "lat": 46.8052, "lng": 13.5733, "count": 2}, {"name": "Millstätter See", "lat": 46.795, "lng": 13.579722, "count": 2}, {"name": "Morteratschgletscher", "lat": 46.409444444444, "lng": 9.9316666666667, "count": 2}, {"name": "Poschiavo", "lat": 46.32441, "lng": 10.05823, "count": 2}, {"name": "Bolladore", "lat": 46.32652, "lng": 10.31856, "count": 2}, {"name": "Stilfser Joch", "lat": 46.528333, "lng": 10.453333, "count": 2}, {"name": "Spondigna", "lat": 46.63368, "lng": 10.6134, "count": 2}, {"name": "Balaton", "lat": 46.83333, "lng": 17.75, "count": 2}, {"name": "Kammer", "lat": 47.94711, "lng": 13.59541, "count": 2}, {"name": "Porlezza", "lat": 46.03714, "lng": 9.12921, "count": 2}, {"name": "Ponte Tresa", "lat": 45.97167, "lng": 8.85927, "count": 2}, {"name": "Cadenabbia", "lat": 45.98861, "lng": 9.23615, "count": 2}, {"name": "Como", "lat": 45.80819, "lng": 9.0832, "count": 2}, {"name": "Dorf Tirol", "lat": 46.690949, "lng": 11.155551, "count": 2}, {"name": "Friedrichshain", "lat": 52.51559, "lng": 13.45482, "count": 2}, {"name": "Dover", "lat": 51.12598, "lng": 1.31257, "count": 2}, {"name": "Ventnor", "lat": 50.59449, "lng": -1.20672, "count": 2}, {"name": "Blankenberge", "lat": 51.31306, "lng": 3.13227, "count": 2}, {"name": "Almsee", "lat": 47.7526, "lng": 13.95658, "count": 2}, {"name": "Kammer See", "lat": 47.64972, "lng": 13.94306, "count": 2}, {"name": "Toplitzsee", "lat": 47.64167, "lng": 13.92778, "count": 2}, {"name": "Wildalpen", "lat": 47.65, "lng": 14.98333, "count": 2}, {"name": "Kronau", "lat": 48.32653, "lng": 16.00442, "count": 2}, {"name": "Nagykanizsa", "lat": 46.45347, "lng": 16.99104, "count": 2}, {"name": "Maria Enzersdorf", "lat": 48.1, "lng": 16.28333, "count": 2}, {"name": "Kottingbrunn", "lat": 47.95096, "lng": 16.22715, "count": 2}, {"name": "Hassbach", "lat": 47.65, "lng": 16.05, "count": 2}, {"name": "Enge Zimnitz", "lat": 47.73333, "lng": 13.58333, "count": 2}, {"name": "Augstsee", "lat": 47.66667, "lng": 13.78333, "count": 2}, {"name": "Arco", "lat": 45.91772, "lng": 10.88672, "count": 2}, {"name": "Torbole sul Garda", "lat": 45.86951, "lng": 10.87561, "count": 2}, {"name": "Varone", "lat": 45.90876, "lng": 10.84188, "count": 2}, {"name": "Berndorf", "lat": 47.94567, "lng": 16.10973, "count": 2}, {"name": "Pieve di Cadore", "lat": 46.42302, "lng": 12.361, "count": 2}, {"name": "Judendorf", "lat": 47.11667, "lng": 15.35, "count": 2}, {"name": "Schottwien", "lat": 47.65683, "lng": 15.8725, "count": 2}, {"name": "Hainfeld", "lat": 48.0339, "lng": 15.77414, "count": 2}, {"name": "Lilienfeld", "lat": 48.01312, "lng": 15.59664, "count": 2}, {"name": "Wels", "lat": 48.16667, "lng": 14.03333, "count": 2}, {"name": "Bad Hall", "lat": 48.03832, "lng": 14.20773, "count": 2}, {"name": "Sollenau", "lat": 47.89834, "lng": 16.24833, "count": 2}, {"name": "Gstättenberg", "lat": 47.73333, "lng": 13.65, "count": 2}, {"name": "Lofer", "lat": 47.58475, "lng": 12.69333, "count": 2}, {"name": "Leoni", "lat": 47.957, "lng": 11.34484, "count": 2}, {"name": "Kaiserbrunn", "lat": 47.73424, "lng": 15.79199, "count": 2}, {"name": "Lübeck", "lat": 53.86893, "lng": 10.68729, "count": 2}, {"name": "Voss", "lat": 60.62869, "lng": 6.41474, "count": 2}, {"name": "Trondheim", "lat": 63.43049, "lng": 10.39506, "count": 2}, {"name": "Drottningholm", "lat": 59.32513, "lng": 17.8878, "count": 2}, {"name": "Warnemünde", "lat": 54.1767, "lng": 12.08402, "count": 2}, {"name": "Sparbach", "lat": 48.07441, "lng": 16.18801, "count": 2}, {"name": "P.", "lat": 48.33333, "lng": 15.75, "count": 2}, {"name": "Gaming", "lat": 47.929, "lng": 15.08818, "count": 2}, {"name": "Mürzsteg", "lat": 47.67556, "lng": 15.49145, "count": 2}, {"name": "Friesach [Sankt Veit an der Glan]", "lat": 46.95528, "lng": 14.405829, "count": 2}, {"name": "Sankt Veit an der Glan", "lat": 46.76806, "lng": 14.36028, "count": 2}, {"name": "Stifting", "lat": 47.088633, "lng": 15.479915, "count": 2}, {"name": "Schladming", "lat": 47.39655, "lng": 13.67761, "count": 2}, {"name": "Bad Hofgastein", "lat": 47.17274, "lng": 13.09871, "count": 2}, {"name": "Kreuth", "lat": 47.64085, "lng": 11.74485, "count": 2}, {"name": "Delémont", "lat": 47.36493, "lng": 7.34453, "count": 2}, {"name": "Neuchâtel", "lat": 47.00942, "lng": 6.9381, "count": 2}, {"name": "Villeneuve", "lat": 46.39869, "lng": 6.92654, "count": 2}, {"name": "Rochers de Naye", "lat": 46.4318, "lng": 6.97602, "count": 2}, {"name": "Wengen", "lat": 46.60599, "lng": 7.92013, "count": 2}, {"name": "Kleine Scheidegg", "lat": 46.58609, "lng": 7.96126, "count": 2}, {"name": "Brienz", "lat": 46.7545, "lng": 8.03847, "count": 2}, {"name": "Meiringen", "lat": 46.72709, "lng": 8.1872, "count": 2}, {"name": "Gletsch", "lat": 46.56226, "lng": 8.36196, "count": 2}, {"name": "Kriens", "lat": 47.0311, "lng": 8.28547, "count": 2}, {"name": "Alpnachstad", "lat": 46.95317, "lng": 8.2776, "count": 2}, {"name": "Pavia", "lat": 45.19205, "lng": 9.15917, "count": 2}, {"name": "Certosa di Pavia", "lat": 45.2543547, "lng": 9.1278876, "count": 2}, {"name": "Rosenburg", "lat": 48.62809, "lng": 15.64058, "count": 2}, {"name": "Faakersee", "lat": 46.5775, "lng": 13.92556, "count": 2}, {"name": "Krumpendorf am Wörthersee", "lat": 46.62907, "lng": 14.21414, "count": 2}, {"name": "Seeboden", "lat": 46.83649, "lng": 13.52346, "count": 2}, {"name": "Prato Piazza", "lat": 46.64949, "lng": 12.18531, "count": 2}, {"name": "Misurina", "lat": 46.58108, "lng": 12.25275, "count": 2}, {"name": "Passo Tre Croci", "lat": 46.55672, "lng": 12.20259, "count": 2}, {"name": "Caprile", "lat": 46.43783, "lng": 11.99438, "count": 2}, {"name": "Vigo di Fassa", "lat": 46.41898, "lng": 11.67418, "count": 2}, {"name": "Passo di Rolle", "lat": 46.29636, "lng": 11.78852, "count": 2}, {"name": "Igls", "lat": 47.23333, "lng": 11.41667, "count": 2}, {"name": "Siriuskogel", "lat": 47.70476, "lng": 13.61815, "count": 2}, {"name": "Biebrich", "lat": 50.0415, "lng": 8.24878, "count": 2}, {"name": "Rüdesheim", "lat": 49.9789, "lng": 7.92442, "count": 2}, {"name": "Kotor", "lat": 42.42067, "lng": 18.76825, "count": 2}, {"name": "Ombla", "lat": 42.66778, "lng": 18.07833, "count": 2}, {"name": "Selzthal", "lat": 47.54988, "lng": 14.31201, "count": 2}, {"name": "Sankt Michael in Obersteiermark", "lat": 47.33839, "lng": 15.01784, "count": 2}, {"name": "Pichl-Kainisch", "lat": 47.5561, "lng": 13.8405, "count": 2}, {"name": "Kaprun", "lat": 47.20551, "lng": 12.72797, "count": 2}, {"name": "Krimml", "lat": 47.21799, "lng": 12.17487, "count": 2}, {"name": "Bludenz", "lat": 47.15476, "lng": 9.82255, "count": 2}, {"name": "Schruns", "lat": 47.06667, "lng": 9.91667, "count": 2}, {"name": "Gargellen", "lat": 46.96743, "lng": 9.91825, "count": 2}, {"name": "Morteratsch", "lat": 46.45112, "lng": 9.94077, "count": 2}, {"name": "Trafoi", "lat": 46.5517, "lng": 10.50988, "count": 2}, {"name": "Cannes", "lat": 43.55135, "lng": 7.01275, "count": 2}, {"name": "Cimiez", "lat": 43.72045, "lng": 7.27872, "count": 2}, {"name": "La Turbie", "lat": 43.7454, "lng": 7.40046, "count": 2}, {"name": "Pisa", "lat": 43.70853, "lng": 10.4036, "count": 2}, {"name": "Schönberg im Stubaital", "lat": 47.18333, "lng": 11.41667, "count": 2}, {"name": "Cardano", "lat": 46.49336, "lng": 11.39295, "count": 2}, {"name": "Karneid", "lat": 46.489913, "lng": 11.408388, "count": 2}, {"name": "Bruneck", "lat": 46.7963, "lng": 11.9449, "count": 2}, {"name": "Schlagl", "lat": 47.63333, "lng": 15.91667, "count": 2}, {"name": "Wassergspreng", "lat": 48.09006, "lng": 16.21161, "count": 2}, {"name": "Brenner", "lat": 46.938906, "lng": 11.445172, "count": 2}, {"name": "Leoben", "lat": 47.3765, "lng": 15.09144, "count": 2}, {"name": "Hieflau", "lat": 47.60639, "lng": 14.74503, "count": 2}, {"name": "Liezen", "lat": 47.56667, "lng": 14.23333, "count": 2}, {"name": "San Francesco del Deserto", "lat": 45.4731, "lng": 12.4169, "count": 2}, {"name": "Vicenza", "lat": 45.54672, "lng": 11.5475, "count": 2}, {"name": "Cles", "lat": 46.36294, "lng": 11.03276, "count": 2}, {"name": "Caldonazzo", "lat": 45.99367, "lng": 11.26426, "count": 2}, {"name": "Lavarone", "lat": 45.93632, "lng": 11.27206, "count": 2}, {"name": "Kronstein [Tulln]", "lat": 48.204892, "lng": 16.00249, "count": 2}, {"name": "Ancona", "lat": 43.5942, "lng": 13.50337, "count": 2}, {"name": "Sorrent", "lat": 40.62678, "lng": 14.37771, "count": 2}, {"name": "Syrakus", "lat": 37.07542, "lng": 15.28664, "count": 2}, {"name": "Messina", "lat": 38.19394, "lng": 15.55256, "count": 2}, {"name": "Nasswald", "lat": 47.73333, "lng": 15.66667, "count": 2}, {"name": "Kapellen", "lat": 47.64784, "lng": 15.62863, "count": 2}, {"name": "Villafranca in Lunigiana", "lat": 44.29844, "lng": 9.95347, "count": 2}, {"name": "Monaco", "lat": 43.73333, "lng": 7.41667, "count": 2}, {"name": "Hochschwab", "lat": 47.6, "lng": 15.08333, "count": 2}, {"name": "Fölz", "lat": 47.53333, "lng": 15.23333, "count": 2}, {"name": "Bodenbauer", "lat": 47.58027777777778, "lng": 15.113055555555556, "count": 2}, {"name": "Ålsgårde", "lat": 56.07559, "lng": 12.53995, "count": 2}, {"name": "Helsingborg", "lat": 56.04673, "lng": 12.69437, "count": 2}, {"name": "Gilleleje", "lat": 56.12196, "lng": 12.31056, "count": 2}, {"name": "Ilmenau", "lat": 50.6912, "lng": 10.9199, "count": 2}, {"name": "Selva di Val Gardena", "lat": 46.55472, "lng": 11.76038, "count": 2}, {"name": "Sella Pass", "lat": 46.50894, "lng": 11.76241, "count": 2}, {"name": "Canazei", "lat": 46.47627, "lng": 11.76929, "count": 2}, {"name": "Welschnofen", "lat": 46.42899, "lng": 11.53942, "count": 2}, {"name": "Labers", "lat": 46.654028, "lng": 11.192297, "count": 2}, {"name": "Badersee", "lat": 47.47399, "lng": 11.01481, "count": 2}, {"name": "Eibsee", "lat": 47.45601, "lng": 10.97311, "count": 2}, {"name": "Mittenwald", "lat": 47.4422, "lng": 11.26187, "count": 2}, {"name": "Kastelruth", "lat": 46.56662, "lng": 11.56098, "count": 2}, {"name": "Doppelreiterkogel", "lat": 47.65337, "lng": 15.82878, "count": 2}, {"name": "Olomouc", "lat": 49.59552, "lng": 17.25175, "count": 2}, {"name": "Bürgenstock", "lat": 47.00031, "lng": 8.3983, "count": 2}, {"name": "Brünig", "lat": 46.75638, "lng": 8.13777, "count": 2}, {"name": "Évian-les-Bains", "lat": 46.40111, "lng": 6.58793, "count": 2}, {"name": "Lázně Kynžvart", "lat": 50.01058, "lng": 12.62474, "count": 2}, {"name": "Barbariga", "lat": 44.99121, "lng": 13.75351, "count": 2}, {"name": "Gronghera", "lat": 44.914742, "lng": 13.716511, "count": 2}, {"name": "Seeshaupt", "lat": 47.82468, "lng": 11.30219, "count": 2}, {"name": "Maloja", "lat": 46.401497, "lng": 9.695937, "count": 2}, {"name": "Sils im Engadin/Segl", "lat": 46.41603, "lng": 9.77504, "count": 2}, {"name": "Weissenbach an der Triesting", "lat": 47.981666666667, "lng": 16.038055555556, "count": 2}, {"name": "Dürnstein", "lat": 48.395556, "lng": 15.520278, "count": 2}, {"name": "Straße von Gibraltar", "lat": 35.97388888888889, "lng": -5.516111111111111, "count": 2}, {"name": "Lunz am See", "lat": 47.8612, "lng": 15.02998, "count": 2}, {"name": "Hahnensee", "lat": 46.466667, "lng": 9.833333, "count": 2}, {"name": "Gaaden", "lat": 48.05364, "lng": 16.20003, "count": 2}, {"name": "Sommersbergsee", "lat": 47.619709, "lng": 13.737244, "count": 2}, {"name": "Obertressen", "lat": 47.61667, "lng": 13.78333, "count": 2}, {"name": "Schlattan", "lat": 47.48946, "lng": 11.14742, "count": 2}, {"name": "Gosau", "lat": 47.58417, "lng": 13.53447, "count": 2}, {"name": "Delft", "lat": 52.00667, "lng": 4.35556, "count": 2}, {"name": "Hintersee", "lat": 47.60661, "lng": 12.85313, "count": 2}, {"name": "Aschauer Weiher", "lat": 47.64427, "lng": 12.98396, "count": 2}, {"name": "Liberec", "lat": 50.76711, "lng": 15.05619, "count": 2}, {"name": "Merkur", "lat": 48.7644, "lng": 8.28056, "count": 2}, {"name": "Friedrichshafen", "lat": 47.65689, "lng": 9.47554, "count": 2}, {"name": "Muottas Muragl", "lat": 46.52396, "lng": 9.90983, "count": 2}, {"name": "Val Roseg", "lat": 46.438899, "lng": 9.871384, "count": 2}, {"name": "Vulpera", "lat": 46.78631, "lng": 10.28346, "count": 2}, {"name": "Sonnenberg", "lat": 47.043927, "lng": 8.272518, "count": 2}, {"name": "Freiburg im Breisgau", "lat": 47.9959, "lng": 7.85222, "count": 2}, {"name": "St. Gallen", "lat": 47.42391, "lng": 9.37477, "count": 2}, {"name": "Oberbozen", "lat": 46.527777777778, "lng": 11.405555555556, "count": 2}, {"name": "Sieghartskirchen", "lat": 48.25531, "lng": 16.01223, "count": 2}, {"name": "Pátrai", "lat": 38.24444, "lng": 21.73444, "count": 2}, {"name": "Frutigen", "lat": 46.58723, "lng": 7.64945, "count": 2}, {"name": "Thunersee", "lat": 46.69228, "lng": 7.72085, "count": 2}, {"name": "Brig", "lat": 46.31667, "lng": 7.98333, "count": 2}, {"name": "Findeln bei Staldenreid", "lat": 46.2, "lng": 7.91667, "count": 2}, {"name": "Piraeus", "lat": 37.94203, "lng": 23.64619, "count": 2}, {"name": "Bosporus", "lat": 41.10164, "lng": 29.06097, "count": 2}, {"name": "?? [Mittelmeer, zwischen Rhodos und Dubrovnik]", "lat": 40.263, "lng": 18.864, "count": 2}, {"name": "Tulbing", "lat": 48.2794, "lng": 16.12209, "count": 2}, {"name": "Schwan See", "lat": 47.55718, "lng": 10.71957, "count": 2}, {"name": "Veytaux", "lat": 46.42138888888889, "lng": 6.9275, "count": 2}]